[{"name":"美羽加藤","address":"新区","lat":35.648177069349856,"lng":139.73962684475165,"choice":"durian"},{"name":"大翔田中","address":"新市","lat":35.72668685185643,"lng":139.71915457898658,"choice":"durian"},{"name":"太一木村","address":"南町","lat":35.69629839246687,"lng":139.58085541676255,"choice":"dragonfruit"},{"name":"愛菜木村","address":"港市","lat":35.53201281186065,"lng":139.86944134956545,"choice":"durian"},{"name":"大翔佐藤","address":"北市","lat":35.58069980107794,"lng":139.5875409853848,"choice":"jackfruit"},{"name":"太一高橋","address":"港町","lat":35.717948728342215,"lng":139.62204749781355,"choice":"jackfruit"},{"name":"大翔山本","address":"新区","lat":35.67324565006261,"lng":139.84839056059022,"choice":"jackfruit"},{"name":"陸斗井上","address":"西市","lat":35.73823377040664,"lng":139.5629976883689,"choice":"rambutan"},{"name":"樹高橋","address":"湖村","lat":35.5705377815984,"lng":139.94939983270237,"choice":"rambutan"},{"name":"大翔高橋","address":"港市","lat":35.54475413090755,"lng":139.90947792155248,"choice":"dragonfruit"},{"name":"陽翔木村","address":"新村","lat":35.64527393077324,"lng":139.76321396493103,"choice":"crab"},{"name":"大翔鈴木","address":"新市","lat":35.68613572688677,"lng":139.80055312955454,"choice":"jackfruit"},{"name":"心愛清水","address":"湖区","lat":35.65867468498072,"lng":139.64536598858737,"choice":"rambutan"},{"name":"樹渡辺","address":"港町","lat":35.57350563115479,"lng":139.9141257816702,"choice":"crab"},{"name":"大和田中","address":"港市","lat":35.529574773279876,"lng":139.7108492108477,"choice":"jackfruit"},{"name":"陸斗清水","address":"西町","lat":35.5359282300279,"lng":139.66561387851266,"choice":"rambutan"},{"name":"大和高橋","address":"港町","lat":35.58288100389344,"lng":139.9072345761558,"choice":"durian"},{"name":"結菜山田","address":"港区","lat":35.619370476645734,"lng":139.5909105855304,"choice":"jackfruit"},{"name":"蒼空加藤","address":"北市","lat":35.70429804539569,"lng":139.6939335345543,"choice":"dragonfruit"},{"name":"樹松本","address":"西村","lat":35.68890251714989,"lng":139.74294647906632,"choice":"dragonfruit"},{"name":"翼小林","address":"湖市","lat":35.73826573075239,"lng":139.67157731759298,"choice":"crab"},{"name":"美羽田中","address":"東村","lat":35.50730227092698,"lng":139.77775701885517,"choice":"durian"},{"name":"颯太清水","address":"湖市","lat":35.644124078385545,"lng":139.7416804039933,"choice":"dragonfruit"},{"name":"美咲高橋","address":"新区","lat":35.576104482393205,"lng":139.69942823686515,"choice":"jackfruit"},{"name":"樹松本","address":"北村","lat":35.68713228805998,"lng":139.9158144172523,"choice":"dragonfruit"},{"name":"翼鈴木","address":"新市","lat":35.58567062490946,"lng":139.82809317949534,"choice":"crab"},{"name":"太一小林","address":"南区","lat":35.546716825406634,"lng":139.91122883027413,"choice":"durian"},{"name":"陽菜中村","address":"港村","lat":35.53723558849794,"lng":139.71226025431807,"choice":"durian"},{"name":"大翔田中","address":"港区","lat":35.51402495397199,"lng":139.5911584026466,"choice":"rambutan"},{"name":"蒼空田中","address":"新区","lat":35.750332870909986,"lng":139.63292274465286,"choice":"dragonfruit"},{"name":"結菜渡辺","address":"西村","lat":35.59970562959511,"lng":139.88007870861924,"choice":"rambutan"},{"name":"太一山口","address":"東区","lat":35.696336211519785,"lng":139.57833630771242,"choice":"dragonfruit"},{"name":"海翔山本","address":"南町","lat":35.76481525821185,"lng":139.60026462715035,"choice":"crab"},{"name":"美咲伊藤","address":"北区","lat":35.556022089535446,"lng":139.78123726336105,"choice":"crab"},{"name":"樹山口","address":"北町","lat":35.54822311306413,"lng":139.81671413217308,"choice":"rambutan"},{"name":"大和斎藤","address":"港町","lat":35.62387651004698,"lng":139.6839186969147,"choice":"jackfruit"},{"name":"陽翔林","address":"新区","lat":35.52297324461201,"lng":139.8288383153977,"choice":"jackfruit"},{"name":"太一山本","address":"港町","lat":35.64370174600147,"lng":139.94649904546705,"choice":"jackfruit"},{"name":"蓮清水","address":"南町","lat":35.580527524383,"lng":139.7955468082468,"choice":"rambutan"},{"name":"美咲加藤","address":"西市","lat":35.51188900500376,"lng":139.80022921447622,"choice":"rambutan"},{"name":"美咲山口","address":"港村","lat":35.629710823095,"lng":139.8182930256607,"choice":"dragonfruit"},{"name":"杏斎藤","address":"南区","lat":35.66551449475883,"lng":139.78161504318481,"choice":"crab"},{"name":"大和伊藤","address":"南市","lat":35.49727246014586,"lng":139.71903532683027,"choice":"durian"},{"name":"陸斗伊藤","address":"港町","lat":35.576659215366035,"lng":139.87876563779062,"choice":"crab"},{"name":"蓮山田","address":"港村","lat":35.721092533380414,"lng":139.77615145718025,"choice":"rambutan"},{"name":"陸斗小林","address":"東区","lat":35.62524413235772,"lng":139.75977679747606,"choice":"jackfruit"},{"name":"杏田中","address":"新市","lat":35.67551821280372,"lng":139.6476216210018,"choice":"dragonfruit"},{"name":"愛菜高橋","address":"新区","lat":35.63156995827887,"lng":139.6748267395085,"choice":"dragonfruit"},{"name":"陽翔中村","address":"北村","lat":35.55577187049609,"lng":139.9405943983577,"choice":"rambutan"},{"name":"美咲吉田","address":"北村","lat":35.511049656286204,"lng":139.6583530537021,"choice":"crab"},{"name":"颯太山本","address":"湖町","lat":35.758192819002225,"lng":139.75637599872243,"choice":"durian"},{"name":"蓮清水","address":"北町","lat":35.76010054485427,"lng":139.77012636218387,"choice":"dragonfruit"},{"name":"陽菜加藤","address":"湖町","lat":35.497586017731955,"lng":139.59143484640137,"choice":"dragonfruit"},{"name":"美羽山本","address":"湖村","lat":35.6418399434873,"lng":139.7884351136961,"choice":"crab"},{"name":"美咲井上","address":"東町","lat":35.55579297186628,"lng":139.9481476332439,"choice":"jackfruit"},{"name":"蒼空中村","address":"新市","lat":35.56528418894165,"lng":139.59726473014763,"choice":"durian"},{"name":"海翔高橋","address":"西村","lat":35.68303966855197,"lng":139.7242374088303,"choice":"jackfruit"},{"name":"樹山田","address":"北村","lat":35.625976818852294,"lng":139.72004968473163,"choice":"jackfruit"},{"name":"陸斗山田","address":"西町","lat":35.51161814990639,"lng":139.73684640113788,"choice":"durian"},{"name":"海翔山口","address":"北町","lat":35.60445738764475,"lng":139.87020748841357,"choice":"rambutan"},{"name":"結愛佐々木","address":"北市","lat":35.624235694353054,"lng":139.5816709607506,"choice":"rambutan"},{"name":"結菜山本","address":"港町","lat":35.61865500869973,"lng":139.79921633467347,"choice":"crab"},{"name":"結愛田中","address":"南町","lat":35.71582185120689,"lng":139.58837157823726,"choice":"jackfruit"},{"name":"杏木村","address":"西村","lat":35.610211535174244,"lng":139.84380766154712,"choice":"rambutan"},{"name":"蒼空渡辺","address":"南市","lat":35.76208865813482,"lng":139.730398077502,"choice":"dragonfruit"},{"name":"蒼空斎藤","address":"湖区","lat":35.65491066481249,"lng":139.5781760968178,"choice":"dragonfruit"},{"name":"陽菜斎藤","address":"湖村","lat":35.6394278510482,"lng":139.8077706409128,"choice":"crab"},{"name":"蒼空斎藤","address":"南町","lat":35.75631171765919,"lng":139.84063686393722,"choice":"crab"},{"name":"陽菜小林","address":"新村","lat":35.7088738334461,"lng":139.69719944627357,"choice":"durian"},{"name":"心愛佐藤","address":"西村","lat":35.67236807230593,"lng":139.69593172775933,"choice":"durian"},{"name":"心愛伊藤","address":"東町","lat":35.5119183302921,"lng":139.67879121120072,"choice":"rambutan"},{"name":"美咲渡辺","address":"西村","lat":35.73784867998192,"lng":139.9049083924611,"choice":"rambutan"},{"name":"太一伊藤","address":"南村","lat":35.74142918021263,"lng":139.82669488106615,"choice":"crab"},{"name":"大和渡辺","address":"東村","lat":35.727838311967744,"lng":139.86988258589525,"choice":"jackfruit"},{"name":"美羽鈴木","address":"北市","lat":35.4960183224112,"lng":139.9282680443905,"choice":"jackfruit"},{"name":"海翔井上","address":"湖市","lat":35.75071031997243,"lng":139.79072757315748,"choice":"durian"},{"name":"海翔田中","address":"北村","lat":35.61424811475821,"lng":139.9128172604522,"choice":"rambutan"},{"name":"陽菜小林","address":"東町","lat":35.49776952230564,"lng":139.79039302003608,"choice":"rambutan"},{"name":"結衣伊藤","address":"西村","lat":35.598630306142795,"lng":139.72678991823534,"choice":"jackfruit"},{"name":"美羽佐藤","address":"新区","lat":35.74259190190664,"lng":139.7392790259404,"choice":"dragonfruit"},{"name":"莉子井上","address":"新村","lat":35.61219278999866,"lng":139.882498065331,"choice":"dragonfruit"},{"name":"翼小林","address":"南町","lat":35.50587644004725,"lng":139.83813548623073,"choice":"durian"},{"name":"颯太山口","address":"北区","lat":35.55086250907151,"lng":139.85625787398126,"choice":"crab"},{"name":"樹林","address":"南区","lat":35.67402012152591,"lng":139.9119075495391,"choice":"jackfruit"},{"name":"蓮松本","address":"港町","lat":35.51905762960622,"lng":139.7022626953945,"choice":"jackfruit"},{"name":"心愛林","address":"西町","lat":35.65292424474588,"lng":139.60973214782263,"choice":"durian"},{"name":"杏吉田","address":"新村","lat":35.68033654297889,"lng":139.85641108055577,"choice":"crab"},{"name":"杏林","address":"東市","lat":35.712132338423324,"lng":139.83087679791416,"choice":"durian"},{"name":"蒼空渡辺","address":"東市","lat":35.59005956282331,"lng":139.6540638269996,"choice":"dragonfruit"},{"name":"海翔田中","address":"北町","lat":35.5231627371311,"lng":139.66737964476616,"choice":"durian"},{"name":"莉子松本","address":"北町","lat":35.511580924529646,"lng":139.7478997594056,"choice":"durian"},{"name":"結衣斎藤","address":"港町","lat":35.58481898541118,"lng":139.57227496756585,"choice":"dragonfruit"},{"name":"樹山口","address":"新村","lat":35.657266950020094,"lng":139.9045035632915,"choice":"rambutan"},{"name":"心愛鈴木","address":"新村","lat":35.604225497379765,"lng":139.59127770150877,"choice":"crab"},{"name":"結衣高橋","address":"北村","lat":35.69378397773016,"lng":139.68876745369369,"choice":"crab"},{"name":"海翔佐藤","address":"北区","lat":35.73518779046595,"lng":139.75790890269153,"choice":"dragonfruit"},{"name":"杏清水","address":"北村","lat":35.64058900482758,"lng":139.7362426981126,"choice":"crab"},{"name":"翼佐藤","address":"東区","lat":35.70308994406043,"lng":139.6467049107122,"choice":"jackfruit"},{"name":"美咲山口","address":"港区","lat":35.50551893885284,"lng":139.61259236600267,"choice":"crab"},{"name":"莉子吉田","address":"東区","lat":35.7462276729408,"lng":139.69317892566283,"choice":"jackfruit"},{"name":"大翔吉田","address":"西区","lat":35.659653161923444,"lng":139.87556122175818,"choice":"dragonfruit"},{"name":"愛菜中村","address":"南町","lat":35.61184500166858,"lng":139.7986966400364,"choice":"rambutan"},{"name":"美咲加藤","address":"西市","lat":35.76032126660453,"lng":139.6247938488254,"choice":"dragonfruit"},{"name":"結愛斎藤","address":"北町","lat":35.572942349098724,"lng":139.66218983728174,"choice":"crab"},{"name":"樹高橋","address":"東町","lat":35.70100305685845,"lng":139.78227070383463,"choice":"durian"},{"name":"蒼空木村","address":"港市","lat":35.534522774950275,"lng":139.63081254723042,"choice":"jackfruit"},{"name":"太一佐藤","address":"南村","lat":35.76005006693077,"lng":139.56783473560267,"choice":"durian"},{"name":"樹佐藤","address":"湖区","lat":35.75771853208785,"lng":139.62180306270199,"choice":"durian"},{"name":"美咲清水","address":"新町","lat":35.51836869592347,"lng":139.57897629100574,"choice":"rambutan"},{"name":"心愛田中","address":"湖村","lat":35.65338589064123,"lng":139.85826794775662,"choice":"dragonfruit"},{"name":"陽翔木村","address":"東区","lat":35.72751844636203,"lng":139.72985709196823,"choice":"dragonfruit"},{"name":"太一中村","address":"西村","lat":35.509886320371855,"lng":139.62747580664205,"choice":"rambutan"},{"name":"樹吉田","address":"西区","lat":35.70636627602166,"lng":139.92448760881675,"choice":"jackfruit"},{"name":"美羽田中","address":"湖区","lat":35.53133587008941,"lng":139.83358470372897,"choice":"rambutan"},{"name":"心愛山本","address":"湖村","lat":35.7555134325076,"lng":139.70970487623185,"choice":"durian"},{"name":"愛菜井上","address":"北市","lat":35.74945890604971,"lng":139.6929623564427,"choice":"dragonfruit"},{"name":"陸斗松本","address":"西村","lat":35.50417345105731,"lng":139.60054807777576,"choice":"rambutan"},{"name":"大翔鈴木","address":"南区","lat":35.68545698692179,"lng":139.8179718341196,"choice":"jackfruit"},{"name":"颯太山田","address":"北市","lat":35.59296071985933,"lng":139.75896029756507,"choice":"dragonfruit"},{"name":"愛菜佐藤","address":"北市","lat":35.69722752816142,"lng":139.76797604677026,"choice":"durian"},{"name":"陽菜加藤","address":"南区","lat":35.727153498765915,"lng":139.6750720916775,"choice":"rambutan"},{"name":"美咲加藤","address":"北区","lat":35.54239695561961,"lng":139.82058599493962,"choice":"durian"},{"name":"美咲山本","address":"新村","lat":35.60652975528302,"lng":139.5827936949854,"choice":"jackfruit"},{"name":"美咲小林","address":"東町","lat":35.54594232851896,"lng":139.68143564724204,"choice":"rambutan"},{"name":"陽菜山田","address":"南村","lat":35.743753834047695,"lng":139.61341367834603,"choice":"durian"},{"name":"美羽井上","address":"東町","lat":35.639118325240176,"lng":139.64783656554567,"choice":"jackfruit"},{"name":"海翔中村","address":"北村","lat":35.67358079375744,"lng":139.92051504494674,"choice":"dragonfruit"},{"name":"大翔伊藤","address":"港村","lat":35.540224736790265,"lng":139.7495265688154,"choice":"rambutan"},{"name":"美羽山本","address":"北村","lat":35.53651449242549,"lng":139.6980460509297,"choice":"jackfruit"},{"name":"颯太佐藤","address":"港村","lat":35.6222798716423,"lng":139.8829438024874,"choice":"rambutan"},{"name":"陽翔中村","address":"北市","lat":35.67835897623057,"lng":139.59018192763222,"choice":"jackfruit"},{"name":"太一吉田","address":"南村","lat":35.5276392603351,"lng":139.76729711113688,"choice":"rambutan"},{"name":"愛菜佐藤","address":"西町","lat":35.74787696392278,"lng":139.58452078510857,"choice":"dragonfruit"},{"name":"結愛林","address":"東町","lat":35.51504032691896,"lng":139.9365097909696,"choice":"durian"},{"name":"蓮高橋","address":"北区","lat":35.687092807414146,"lng":139.653986831314,"choice":"durian"},{"name":"大翔山田","address":"湖市","lat":35.64318678062072,"lng":139.61063134967281,"choice":"rambutan"},{"name":"大翔清水","address":"新町","lat":35.73074983225728,"lng":139.69593947345342,"choice":"durian"},{"name":"結菜鈴木","address":"南市","lat":35.58747820613403,"lng":139.7286934825667,"choice":"rambutan"},{"name":"杏小林","address":"西市","lat":35.682980799707366,"lng":139.63517091771263,"choice":"crab"},{"name":"美咲清水","address":"西村","lat":35.57076094154192,"lng":139.81589963481386,"choice":"jackfruit"},{"name":"樹中村","address":"湖区","lat":35.75709318436758,"lng":139.71025812266132,"choice":"durian"},{"name":"陽翔吉田","address":"東村","lat":35.683293831849156,"lng":139.62544744367761,"choice":"rambutan"},{"name":"蒼空山田","address":"新村","lat":35.64790582816963,"lng":139.62108040522173,"choice":"crab"},{"name":"心愛井上","address":"東町","lat":35.682331798197524,"lng":139.806556782077,"choice":"dragonfruit"},{"name":"大翔渡辺","address":"湖市","lat":35.66547001347181,"lng":139.78314621752577,"choice":"durian"},{"name":"大和斎藤","address":"南町","lat":35.71329340710301,"lng":139.84222496466353,"choice":"rambutan"},{"name":"蓮小林","address":"西区","lat":35.65190492768253,"lng":139.88860360234543,"choice":"rambutan"},{"name":"美咲山本","address":"東村","lat":35.650714540667686,"lng":139.7041339253961,"choice":"durian"},{"name":"結愛佐藤","address":"北市","lat":35.60970175703898,"lng":139.83893719150745,"choice":"crab"},{"name":"翼佐藤","address":"新区","lat":35.582006659402076,"lng":139.9422956392358,"choice":"dragonfruit"},{"name":"結愛高橋","address":"東村","lat":35.745541636796794,"lng":139.59982201330098,"choice":"rambutan"},{"name":"大和斎藤","address":"東市","lat":35.50337023715175,"lng":139.91026343754888,"choice":"crab"},{"name":"陽菜山本","address":"南村","lat":35.58161092817597,"lng":139.84717394378424,"choice":"jackfruit"},{"name":"大和小林","address":"港町","lat":35.53811933049967,"lng":139.90801275469076,"choice":"durian"},{"name":"美咲松本","address":"北町","lat":35.61899183181457,"lng":139.79581653145686,"choice":"jackfruit"},{"name":"蒼空中村","address":"新市","lat":35.750971845120674,"lng":139.7101649033383,"choice":"rambutan"},{"name":"結衣中村","address":"港村","lat":35.509190584270605,"lng":139.67851343978168,"choice":"crab"},{"name":"陽翔田中","address":"新村","lat":35.55787620556733,"lng":139.78556817067485,"choice":"crab"},{"name":"心愛加藤","address":"西町","lat":35.70654728834859,"lng":139.89292556814422,"choice":"jackfruit"},{"name":"陽菜山口","address":"湖町","lat":35.76242661189872,"lng":139.82539867501382,"choice":"crab"},{"name":"颯太松本","address":"東市","lat":35.668523991679585,"lng":139.9129905629573,"choice":"dragonfruit"},{"name":"結衣中村","address":"西町","lat":35.501897973376636,"lng":139.8398936475511,"choice":"rambutan"},{"name":"杏吉田","address":"港区","lat":35.62772697184695,"lng":139.81766051960403,"choice":"crab"},{"name":"美咲加藤","address":"北市","lat":35.6520963108612,"lng":139.66226079385441,"choice":"crab"},{"name":"大和清水","address":"南区","lat":35.62045567562272,"lng":139.93738090748516,"choice":"durian"},{"name":"莉子山田","address":"北市","lat":35.61396715464123,"lng":139.8895862097251,"choice":"dragonfruit"},{"name":"陸斗井上","address":"湖村","lat":35.62879362927175,"lng":139.63287590164686,"choice":"durian"},{"name":"美咲伊藤","address":"港市","lat":35.64559819103914,"lng":139.78475150496695,"choice":"rambutan"},{"name":"心愛加藤","address":"新村","lat":35.62563097196853,"lng":139.6983067991616,"choice":"durian"},{"name":"翼斎藤","address":"西村","lat":35.68325626914678,"lng":139.81832679792188,"choice":"rambutan"},{"name":"美咲山口","address":"東村","lat":35.57238617982594,"lng":139.86164282409976,"choice":"crab"},{"name":"太一山本","address":"北町","lat":35.72417510352443,"lng":139.5958591423737,"choice":"durian"},{"name":"陸斗佐々木","address":"南市","lat":35.6307419024245,"lng":139.84625687509205,"choice":"jackfruit"},{"name":"太一山口","address":"港町","lat":35.58070150018866,"lng":139.63554233795622,"choice":"jackfruit"},{"name":"結菜伊藤","address":"北町","lat":35.70465705178279,"lng":139.7146369220656,"choice":"crab"},{"name":"大翔渡辺","address":"東区","lat":35.689696763904486,"lng":139.91260031059898,"choice":"crab"},{"name":"陸斗佐々木","address":"新市","lat":35.50888848925899,"lng":139.7636054899491,"choice":"dragonfruit"},{"name":"莉子斎藤","address":"新町","lat":35.681287624375265,"lng":139.84673313977598,"choice":"crab"},{"name":"蒼空斎藤","address":"東村","lat":35.577776279533374,"lng":139.63218633575454,"choice":"jackfruit"},{"name":"大翔井上","address":"西町","lat":35.52951645349855,"lng":139.63200966900797,"choice":"crab"},{"name":"陽翔山口","address":"西町","lat":35.554789842317724,"lng":139.6946896836802,"choice":"rambutan"},{"name":"結菜鈴木","address":"西市","lat":35.732375147341294,"lng":139.7869954364152,"choice":"jackfruit"},{"name":"陸斗佐藤","address":"北区","lat":35.572412891521026,"lng":139.7800685711835,"choice":"dragonfruit"},{"name":"太一斎藤","address":"湖町","lat":35.580036680997196,"lng":139.7331756857886,"choice":"dragonfruit"},{"name":"樹加藤","address":"東区","lat":35.60312995403725,"lng":139.7953306662747,"choice":"durian"},{"name":"美咲渡辺","address":"港区","lat":35.7611243999796,"lng":139.89670946089637,"choice":"rambutan"},{"name":"颯太山本","address":"南区","lat":35.59628509146869,"lng":139.60820919367544,"choice":"jackfruit"},{"name":"颯太林","address":"北市","lat":35.737304502366975,"lng":139.8112753343881,"choice":"rambutan"},{"name":"蒼空小林","address":"湖村","lat":35.75289004003755,"lng":139.7983358095041,"choice":"rambutan"},{"name":"莉子佐藤","address":"北町","lat":35.72441600486244,"lng":139.87704046218076,"choice":"crab"},{"name":"美羽山本","address":"西市","lat":35.51270203348554,"lng":139.72788032541644,"choice":"jackfruit"},{"name":"結愛加藤","address":"東市","lat":35.632412808615335,"lng":139.5584675246646,"choice":"rambutan"},{"name":"愛菜渡辺","address":"北区","lat":35.53005395981796,"lng":139.86565694289408,"choice":"durian"},{"name":"陸斗佐藤","address":"湖区","lat":35.718709483109684,"lng":139.8711106591544,"choice":"jackfruit"},{"name":"結愛井上","address":"西町","lat":35.58420965830668,"lng":139.80309709192514,"choice":"crab"},{"name":"蒼空伊藤","address":"東町","lat":35.65955438597805,"lng":139.60057460744966,"choice":"crab"},{"name":"杏小林","address":"北市","lat":35.76358804837696,"lng":139.84832964649596,"choice":"jackfruit"},{"name":"陽菜中村","address":"湖区","lat":35.50660733409061,"lng":139.6420718236981,"choice":"crab"},{"name":"蓮木村","address":"新村","lat":35.49943131592683,"lng":139.69187467446417,"choice":"durian"},{"name":"結菜斎藤","address":"東市","lat":35.55130731416639,"lng":139.66684546823862,"choice":"jackfruit"},{"name":"蒼空中村","address":"港村","lat":35.7179710113076,"lng":139.8548992641999,"choice":"crab"},{"name":"美咲木村","address":"東市","lat":35.59004733188265,"lng":139.57734923667294,"choice":"rambutan"},{"name":"美咲山口","address":"新市","lat":35.76851986866634,"lng":139.68187287132974,"choice":"dragonfruit"},{"name":"結菜佐藤","address":"港町","lat":35.57174271044848,"lng":139.86725737279028,"choice":"durian"},{"name":"大和木村","address":"西区","lat":35.58075868034293,"lng":139.629174970473,"choice":"durian"},{"name":"結衣高橋","address":"新市","lat":35.57908775556936,"lng":139.93929250272785,"choice":"dragonfruit"},{"name":"陽翔加藤","address":"西市","lat":35.731769118540555,"lng":139.68158272836442,"choice":"jackfruit"},{"name":"結衣佐々木","address":"湖町","lat":35.55186338530667,"lng":139.5739486612338,"choice":"dragonfruit"},{"name":"陸斗斎藤","address":"新区","lat":35.567474004249775,"lng":139.89560798045287,"choice":"crab"},{"name":"結愛高橋","address":"湖村","lat":35.7628992505173,"lng":139.72085154222987,"choice":"crab"},{"name":"太一木村","address":"西町","lat":35.56629877080809,"lng":139.86128214441538,"choice":"jackfruit"},{"name":"蓮木村","address":"東町","lat":35.60908891800211,"lng":139.9174740980433,"choice":"rambutan"},{"name":"蒼空斎藤","address":"北村","lat":35.56829053363352,"lng":139.94294156470136,"choice":"jackfruit"},{"name":"愛菜林","address":"新区","lat":35.62031354283857,"lng":139.67436871754268,"choice":"dragonfruit"},{"name":"大和林","address":"北市","lat":35.602219229913636,"lng":139.63161007544963,"choice":"dragonfruit"},{"name":"海翔井上","address":"東市","lat":35.74853663431198,"lng":139.65157566401433,"choice":"dragonfruit"},{"name":"大翔松本","address":"湖市","lat":35.52702463317427,"lng":139.78846876612175,"choice":"crab"},{"name":"海翔松本","address":"南区","lat":35.55134732372746,"lng":139.6872378947739,"choice":"dragonfruit"},{"name":"杏井上","address":"北町","lat":35.52322779045818,"lng":139.65383880834588,"choice":"jackfruit"},{"name":"陽翔井上","address":"東区","lat":35.763195984210796,"lng":139.70720754092488,"choice":"rambutan"},{"name":"心愛中村","address":"東市","lat":35.56900322038353,"lng":139.73917242771245,"choice":"jackfruit"},{"name":"颯太吉田","address":"北町","lat":35.74501305099289,"lng":139.91896957221368,"choice":"dragonfruit"},{"name":"心愛田中","address":"西村","lat":35.74515309447952,"lng":139.56097874227083,"choice":"durian"},{"name":"結愛山本","address":"北区","lat":35.72702737764683,"lng":139.9482969093182,"choice":"rambutan"},{"name":"美羽高橋","address":"湖市","lat":35.73331005551872,"lng":139.74505416462873,"choice":"jackfruit"},{"name":"結衣山口","address":"新市","lat":35.68100681932869,"lng":139.8864596798697,"choice":"jackfruit"},{"name":"大和林","address":"西町","lat":35.74606913537895,"lng":139.62968862876232,"choice":"rambutan"},{"name":"海翔渡辺","address":"港区","lat":35.496509581996825,"lng":139.8954833339912,"choice":"durian"},{"name":"心愛山口","address":"南村","lat":35.716820334128585,"lng":139.8331515829328,"choice":"durian"},{"name":"翼加藤","address":"新区","lat":35.510400571941304,"lng":139.66473226624228,"choice":"jackfruit"},{"name":"陽菜山本","address":"北町","lat":35.690576234284975,"lng":139.63496616406368,"choice":"durian"},{"name":"愛菜吉田","address":"西町","lat":35.630789261274444,"lng":139.63666112881592,"choice":"durian"},{"name":"陸斗佐々木","address":"北区","lat":35.67570709394376,"lng":139.9199602338451,"choice":"durian"},{"name":"颯太木村","address":"港町","lat":35.70681556681748,"lng":139.84417988525516,"choice":"crab"},{"name":"結愛林","address":"北区","lat":35.74431477267957,"lng":139.8590395054616,"choice":"durian"},{"name":"結菜清水","address":"湖村","lat":35.66981028048995,"lng":139.9498674716522,"choice":"jackfruit"},{"name":"蓮小林","address":"新区","lat":35.50283344393454,"lng":139.9126641390015,"choice":"jackfruit"},{"name":"大翔松本","address":"新市","lat":35.50587544559903,"lng":139.69543794600523,"choice":"dragonfruit"},{"name":"陽翔林","address":"港町","lat":35.498571154407706,"lng":139.85709184042557,"choice":"dragonfruit"},{"name":"陽菜山口","address":"南区","lat":35.62909016998228,"lng":139.5732678357037,"choice":"dragonfruit"},{"name":"陸斗清水","address":"南市","lat":35.73925177542951,"lng":139.89476726227238,"choice":"durian"},{"name":"結衣小林","address":"西市","lat":35.61616847544487,"lng":139.64396047947926,"choice":"rambutan"},{"name":"美羽鈴木","address":"南町","lat":35.75357830836051,"lng":139.64371281253312,"choice":"durian"},{"name":"莉子伊藤","address":"湖市","lat":35.62044361128518,"lng":139.56962351366977,"choice":"crab"},{"name":"美羽高橋","address":"東区","lat":35.753180805230215,"lng":139.87605670458447,"choice":"jackfruit"},{"name":"翼加藤","address":"新村","lat":35.73035632215504,"lng":139.89094526963908,"choice":"dragonfruit"},{"name":"颯太木村","address":"新町","lat":35.67900249821785,"lng":139.6049004392117,"choice":"jackfruit"},{"name":"樹加藤","address":"港村","lat":35.51206749741062,"lng":139.6537885253004,"choice":"dragonfruit"},{"name":"莉子木村","address":"東村","lat":35.65226480017949,"lng":139.744987571608,"choice":"dragonfruit"},{"name":"杏田中","address":"港村","lat":35.494798489153744,"lng":139.69270166866968,"choice":"durian"},{"name":"陸斗高橋","address":"西市","lat":35.6921847418784,"lng":139.8278142051753,"choice":"rambutan"},{"name":"結衣山本","address":"港村","lat":35.69366709443415,"lng":139.9338078031127,"choice":"jackfruit"},{"name":"翼伊藤","address":"東町","lat":35.70481244209529,"lng":139.6782072772703,"choice":"crab"},{"name":"大翔渡辺","address":"港町","lat":35.65971044027679,"lng":139.80647711297735,"choice":"jackfruit"},{"name":"蓮加藤","address":"港区","lat":35.725741865901654,"lng":139.670246185525,"choice":"jackfruit"},{"name":"颯太鈴木","address":"西町","lat":35.669457768997546,"lng":139.70880002984947,"choice":"durian"},{"name":"陽菜松本","address":"新市","lat":35.548426629264405,"lng":139.5980465179543,"choice":"rambutan"},{"name":"大和清水","address":"北区","lat":35.504820864681065,"lng":139.72611036169826,"choice":"rambutan"},{"name":"陽菜清水","address":"新村","lat":35.76081424326003,"lng":139.69098739402284,"choice":"crab"},{"name":"陽菜山本","address":"西市","lat":35.695051466657105,"lng":139.60600324183088,"choice":"rambutan"},{"name":"蓮中村","address":"北町","lat":35.76940528931744,"lng":139.73279774815177,"choice":"durian"},{"name":"結愛中村","address":"西区","lat":35.56681737993804,"lng":139.8484086386037,"choice":"dragonfruit"},{"name":"颯太渡辺","address":"南市","lat":35.613589621586776,"lng":139.9318417846859,"choice":"jackfruit"},{"name":"結衣山本","address":"湖区","lat":35.700683168913635,"lng":139.8533380162776,"choice":"durian"},{"name":"心愛山口","address":"北町","lat":35.62620409623283,"lng":139.93188260022356,"choice":"dragonfruit"},{"name":"蒼空中村","address":"新町","lat":35.506499162323856,"lng":139.80184835859373,"choice":"dragonfruit"},{"name":"愛菜林","address":"東村","lat":35.653259035382796,"lng":139.88449350640295,"choice":"rambutan"},{"name":"愛菜木村","address":"湖市","lat":35.551404018171326,"lng":139.87612657540922,"choice":"jackfruit"},{"name":"颯太小林","address":"新村","lat":35.74626948854346,"lng":139.63097451503842,"choice":"jackfruit"},{"name":"美咲高橋","address":"東区","lat":35.76099758514105,"lng":139.8154021094099,"choice":"dragonfruit"},{"name":"海翔斎藤","address":"南区","lat":35.739049121920026,"lng":139.80638216629518,"choice":"rambutan"},{"name":"陸斗田中","address":"西村","lat":35.640410466857766,"lng":139.7068689409877,"choice":"crab"},{"name":"蓮小林","address":"西区","lat":35.59596472251615,"lng":139.89218543646203,"choice":"rambutan"},{"name":"樹佐々木","address":"北村","lat":35.68598751427475,"lng":139.64521531894798,"choice":"jackfruit"},{"name":"翼山田","address":"新区","lat":35.64132844465149,"lng":139.74137060227267,"choice":"dragonfruit"},{"name":"陸斗伊藤","address":"新市","lat":35.6866991260255,"lng":139.75986846389353,"choice":"crab"},{"name":"陽翔佐藤","address":"南村","lat":35.68518031799528,"lng":139.61726160410586,"choice":"rambutan"},{"name":"太一吉田","address":"南村","lat":35.600017585398284,"lng":139.85545474681362,"choice":"rambutan"},{"name":"翼山本","address":"湖市","lat":35.71035646630681,"lng":139.57239037857846,"choice":"rambutan"},{"name":"心愛山口","address":"北区","lat":35.64909529253268,"lng":139.71708211464775,"choice":"durian"},{"name":"蒼空中村","address":"東村","lat":35.76816989492515,"lng":139.60091120441393,"choice":"crab"},{"name":"陽翔渡辺","address":"湖市","lat":35.500647791149376,"lng":139.7051498370486,"choice":"durian"},{"name":"大和田中","address":"南村","lat":35.72051381942266,"lng":139.61170627124815,"choice":"dragonfruit"},{"name":"樹鈴木","address":"湖村","lat":35.65542964471628,"lng":139.77399856965525,"choice":"dragonfruit"},{"name":"颯太林","address":"港市","lat":35.7275882859307,"lng":139.60514688970258,"choice":"dragonfruit"},{"name":"太一吉田","address":"港町","lat":35.76561142484389,"lng":139.65058534179695,"choice":"crab"},{"name":"大和中村","address":"東村","lat":35.617333795514874,"lng":139.57200578346848,"choice":"crab"},{"name":"陸斗佐々木","address":"東市","lat":35.53761959383879,"lng":139.7427523778422,"choice":"rambutan"},{"name":"愛菜田中","address":"西市","lat":35.687235338818965,"lng":139.9196192618203,"choice":"jackfruit"},{"name":"颯太林","address":"東区","lat":35.64464143598547,"lng":139.9058507314079,"choice":"crab"},{"name":"結愛吉田","address":"湖町","lat":35.69722809009372,"lng":139.91500862535216,"choice":"durian"},{"name":"結衣斎藤","address":"南区","lat":35.639248617823206,"lng":139.73194911488477,"choice":"durian"},{"name":"颯太高橋","address":"新村","lat":35.599693533859764,"lng":139.59846709266512,"choice":"dragonfruit"},{"name":"樹山口","address":"東区","lat":35.561960876034114,"lng":139.7808096992184,"choice":"jackfruit"},{"name":"心愛井上","address":"新町","lat":35.534783548903924,"lng":139.58582734214954,"choice":"jackfruit"},{"name":"結菜山田","address":"南町","lat":35.5091839915239,"lng":139.94500940885854,"choice":"crab"},{"name":"翼山田","address":"新区","lat":35.572831940502795,"lng":139.8184011778442,"choice":"dragonfruit"},{"name":"海翔斎藤","address":"東区","lat":35.69984152202663,"lng":139.81957930111295,"choice":"crab"},{"name":"翼林","address":"東町","lat":35.56904767452861,"lng":139.64145050018982,"choice":"dragonfruit"},{"name":"蒼空山本","address":"東町","lat":35.636438865628655,"lng":139.82804398898486,"choice":"durian"},{"name":"大翔井上","address":"北区","lat":35.68176560710712,"lng":139.6271042978165,"choice":"rambutan"},{"name":"大和中村","address":"東区","lat":35.70432462270179,"lng":139.60305038660886,"choice":"crab"},{"name":"蓮斎藤","address":"東町","lat":35.69843440703461,"lng":139.80797881428163,"choice":"durian"},{"name":"莉子佐藤","address":"新町","lat":35.58731343570425,"lng":139.61015143986424,"choice":"rambutan"},{"name":"結愛渡辺","address":"南町","lat":35.62599983681731,"lng":139.868960948198,"choice":"jackfruit"},{"name":"蓮中村","address":"西市","lat":35.686207212853546,"lng":139.66788467501684,"choice":"durian"},{"name":"陸斗木村","address":"港市","lat":35.61742207533104,"lng":139.8767162901519,"choice":"rambutan"},{"name":"美羽佐藤","address":"新市","lat":35.56210867429107,"lng":139.76536013118204,"choice":"crab"},{"name":"颯太渡辺","address":"新町","lat":35.6827356080117,"lng":139.72679523585902,"choice":"jackfruit"},{"name":"結衣伊藤","address":"西村","lat":35.62013556055259,"lng":139.75308047207216,"choice":"dragonfruit"},{"name":"颯太山田","address":"西町","lat":35.70070158129554,"lng":139.66554380952954,"choice":"dragonfruit"},{"name":"陽翔佐々木","address":"東町","lat":35.536348698107204,"lng":139.9051616812796,"choice":"rambutan"},{"name":"陸斗渡辺","address":"新町","lat":35.64292627134113,"lng":139.89279813624697,"choice":"jackfruit"},{"name":"陸斗井上","address":"西町","lat":35.66289125568317,"lng":139.80592240493658,"choice":"dragonfruit"},{"name":"蓮高橋","address":"東村","lat":35.60844520309504,"lng":139.91490188515405,"choice":"crab"},{"name":"大和木村","address":"港村","lat":35.660122640747225,"lng":139.72308833176518,"choice":"durian"},{"name":"杏吉田","address":"東区","lat":35.60434344024351,"lng":139.6368002095087,"choice":"rambutan"},{"name":"陸斗小林","address":"西区","lat":35.76236703253935,"lng":139.83996173422688,"choice":"rambutan"},{"name":"陽翔高橋","address":"港村","lat":35.50575576526592,"lng":139.72907207103327,"choice":"rambutan"},{"name":"颯太加藤","address":"西市","lat":35.639537926622005,"lng":139.91808910635322,"choice":"durian"},{"name":"大翔清水","address":"北区","lat":35.65063669625811,"lng":139.61296936864193,"choice":"dragonfruit"},{"name":"愛菜加藤","address":"港区","lat":35.56361704744042,"lng":139.7162987872373,"choice":"jackfruit"},{"name":"美羽山田","address":"港区","lat":35.627173037188435,"lng":139.8217095879495,"choice":"jackfruit"},{"name":"陽菜山田","address":"東市","lat":35.62174106056702,"lng":139.814485576496,"choice":"durian"},{"name":"太一斎藤","address":"港町","lat":35.52303390554343,"lng":139.89194609659387,"choice":"jackfruit"},{"name":"陽翔吉田","address":"湖町","lat":35.57487195905439,"lng":139.80699030402707,"choice":"durian"},{"name":"結菜田中","address":"北市","lat":35.51400907928078,"lng":139.8739858930228,"choice":"rambutan"},{"name":"杏清水","address":"港市","lat":35.659044835036404,"lng":139.6845933885303,"choice":"rambutan"},{"name":"大和松本","address":"新市","lat":35.728043154818636,"lng":139.85699654667349,"choice":"crab"},{"name":"陽翔鈴木","address":"東区","lat":35.611706199949744,"lng":139.9424269076091,"choice":"rambutan"},{"name":"結菜佐藤","address":"湖町","lat":35.64712173719539,"lng":139.76594731245638,"choice":"rambutan"},{"name":"翼佐藤","address":"新村","lat":35.51527722354387,"lng":139.70578795805156,"choice":"dragonfruit"},{"name":"陸斗山口","address":"港町","lat":35.60779018395066,"lng":139.6006167950724,"choice":"dragonfruit"},{"name":"結衣斎藤","address":"新区","lat":35.67295110622642,"lng":139.85076762005724,"choice":"durian"},{"name":"陽翔渡辺","address":"港村","lat":35.76955299945259,"lng":139.8900510280202,"choice":"crab"},{"name":"颯太小林","address":"西村","lat":35.50046079910249,"lng":139.82693442512436,"choice":"durian"},{"name":"結衣井上","address":"南村","lat":35.65391630445045,"lng":139.8497366417844,"choice":"dragonfruit"},{"name":"翼山田","address":"南町","lat":35.590561907785634,"lng":139.93973967960696,"choice":"crab"},{"name":"海翔田中","address":"南区","lat":35.70863954759805,"lng":139.7502098838814,"choice":"rambutan"},{"name":"蓮加藤","address":"港村","lat":35.68717686081436,"lng":139.66638346867754,"choice":"dragonfruit"},{"name":"陽翔山口","address":"南町","lat":35.59804191018966,"lng":139.59825682221205,"choice":"rambutan"},{"name":"太一田中","address":"東区","lat":35.68236637300897,"lng":139.90201719276877,"choice":"jackfruit"},{"name":"心愛吉田","address":"港町","lat":35.65645956625517,"lng":139.8560521066021,"choice":"durian"},{"name":"大和佐々木","address":"北区","lat":35.7685028645348,"lng":139.77160560438938,"choice":"rambutan"},{"name":"莉子佐々木","address":"湖村","lat":35.756156811318384,"lng":139.66879698588122,"choice":"durian"},{"name":"翼佐藤","address":"北村","lat":35.56045085576918,"lng":139.86022725957758,"choice":"rambutan"},{"name":"大和伊藤","address":"南町","lat":35.638494419372485,"lng":139.6348019661466,"choice":"dragonfruit"},{"name":"結菜加藤","address":"南区","lat":35.56171666905176,"lng":139.9384578770216,"choice":"rambutan"},{"name":"美羽佐藤","address":"西町","lat":35.7283027896891,"lng":139.7945223235032,"choice":"crab"},{"name":"樹鈴木","address":"湖村","lat":35.67437784183077,"lng":139.5991657004731,"choice":"rambutan"},{"name":"大和高橋","address":"港町","lat":35.71871469577056,"lng":139.8918855210096,"choice":"jackfruit"},{"name":"太一田中","address":"南町","lat":35.732455896295136,"lng":139.81899804608045,"choice":"durian"},{"name":"陸斗伊藤","address":"港村","lat":35.69233616716896,"lng":139.57940874430648,"choice":"rambutan"},{"name":"陽翔松本","address":"港町","lat":35.66847023833771,"lng":139.8300221481812,"choice":"crab"},{"name":"結菜山田","address":"湖区","lat":35.63823730806343,"lng":139.68334592320463,"choice":"crab"},{"name":"心愛高橋","address":"西市","lat":35.6196707878422,"lng":139.87258366641828,"choice":"dragonfruit"},{"name":"大翔田中","address":"南市","lat":35.53143021321757,"lng":139.67293093000904,"choice":"crab"},{"name":"太一加藤","address":"東村","lat":35.54998060825004,"lng":139.74101855862202,"choice":"durian"},{"name":"大和小林","address":"港区","lat":35.715126457209045,"lng":139.63469372475677,"choice":"rambutan"},{"name":"愛菜高橋","address":"東村","lat":35.73483155285857,"lng":139.9256597214593,"choice":"crab"},{"name":"美咲木村","address":"南区","lat":35.64673380888446,"lng":139.6021797144132,"choice":"crab"},{"name":"莉子林","address":"北町","lat":35.63570767694786,"lng":139.71915514339804,"choice":"rambutan"},{"name":"心愛斎藤","address":"南市","lat":35.49629978151833,"lng":139.73210743194812,"choice":"rambutan"},{"name":"大翔中村","address":"湖区","lat":35.6986090678794,"lng":139.81006949094376,"choice":"dragonfruit"},{"name":"大和小林","address":"新区","lat":35.51879112578483,"lng":139.68854505246892,"choice":"dragonfruit"},{"name":"颯太木村","address":"東市","lat":35.53700306304297,"lng":139.94573482767416,"choice":"crab"},{"name":"颯太佐藤","address":"西村","lat":35.65248813441499,"lng":139.67380835356929,"choice":"jackfruit"},{"name":"蓮吉田","address":"東村","lat":35.69425013847655,"lng":139.60717837222373,"choice":"rambutan"},{"name":"結衣田中","address":"港町","lat":35.76813791043523,"lng":139.63033616130434,"choice":"rambutan"},{"name":"蓮林","address":"東市","lat":35.60152560295878,"lng":139.587717248494,"choice":"crab"},{"name":"翼清水","address":"新区","lat":35.697067440154164,"lng":139.81314156809123,"choice":"dragonfruit"},{"name":"海翔斎藤","address":"湖村","lat":35.57377370469131,"lng":139.766684548295,"choice":"jackfruit"},{"name":"心愛木村","address":"西町","lat":35.52496749613132,"lng":139.71282937062628,"choice":"durian"},{"name":"太一林","address":"北町","lat":35.73276151233976,"lng":139.69983494563132,"choice":"durian"},{"name":"陸斗高橋","address":"西村","lat":35.58047567423371,"lng":139.83011624562405,"choice":"durian"},{"name":"颯太小林","address":"港町","lat":35.76200887279691,"lng":139.81974830173073,"choice":"dragonfruit"},{"name":"海翔田中","address":"南市","lat":35.6920737405912,"lng":139.6520098354681,"choice":"jackfruit"},{"name":"結衣高橋","address":"南村","lat":35.570233884298,"lng":139.873592162896,"choice":"crab"},{"name":"海翔田中","address":"西市","lat":35.57444258899713,"lng":139.65895036421628,"choice":"crab"},{"name":"陸斗高橋","address":"南区","lat":35.52001891522635,"lng":139.6872308889914,"choice":"jackfruit"},{"name":"莉子佐藤","address":"北市","lat":35.53263647269476,"lng":139.71973137166535,"choice":"durian"},{"name":"結愛渡辺","address":"西村","lat":35.644027185626236,"lng":139.60157281789978,"choice":"dragonfruit"},{"name":"陽菜井上","address":"西区","lat":35.55784434148089,"lng":139.71070937320238,"choice":"crab"},{"name":"陽菜小林","address":"南市","lat":35.55458534248814,"lng":139.87031598238823,"choice":"jackfruit"},{"name":"心愛山口","address":"港区","lat":35.57448334845831,"lng":139.6942062028302,"choice":"jackfruit"},{"name":"蒼空伊藤","address":"港町","lat":35.70090676756362,"lng":139.58323757454772,"choice":"dragonfruit"},{"name":"太一木村","address":"西町","lat":35.522295923830534,"lng":139.9069817792031,"choice":"dragonfruit"},{"name":"結菜木村","address":"西区","lat":35.513182346844566,"lng":139.58600924940438,"choice":"durian"},{"name":"翼加藤","address":"港町","lat":35.65153722952907,"lng":139.58226802882726,"choice":"crab"},{"name":"太一小林","address":"南市","lat":35.71202664293528,"lng":139.65820209819415,"choice":"durian"},{"name":"大翔清水","address":"東村","lat":35.713478185298605,"lng":139.76165779121948,"choice":"rambutan"},{"name":"杏木村","address":"湖町","lat":35.649458478957804,"lng":139.82317586542734,"choice":"durian"},{"name":"美羽小林","address":"西市","lat":35.708401918365695,"lng":139.65683916502726,"choice":"crab"},{"name":"陸斗佐々木","address":"南町","lat":35.68136561685247,"lng":139.65450976218887,"choice":"crab"},{"name":"蓮佐藤","address":"東村","lat":35.65496222980384,"lng":139.62082061200576,"choice":"durian"},{"name":"海翔斎藤","address":"西市","lat":35.49948720532301,"lng":139.6351646493234,"choice":"jackfruit"},{"name":"心愛吉田","address":"東区","lat":35.71748425972791,"lng":139.86317789744322,"choice":"rambutan"},{"name":"蒼空井上","address":"西村","lat":35.67679696499576,"lng":139.56620752936797,"choice":"durian"},{"name":"美咲田中","address":"北市","lat":35.69795372762227,"lng":139.57602362681166,"choice":"rambutan"},{"name":"美羽斎藤","address":"北区","lat":35.50231442254501,"lng":139.74536429083244,"choice":"crab"},{"name":"美羽山本","address":"東市","lat":35.68954504993198,"lng":139.9401132839201,"choice":"rambutan"},{"name":"大翔小林","address":"東市","lat":35.50971334377239,"lng":139.84905187079684,"choice":"jackfruit"},{"name":"太一加藤","address":"北村","lat":35.628945340734184,"lng":139.64241302083008,"choice":"dragonfruit"},{"name":"樹小林","address":"新村","lat":35.75657553337209,"lng":139.81715320747458,"choice":"crab"},{"name":"海翔井上","address":"新市","lat":35.573696159006005,"lng":139.64489287915757,"choice":"dragonfruit"},{"name":"颯太山本","address":"東市","lat":35.678279133370125,"lng":139.63973538885557,"choice":"crab"},{"name":"杏斎藤","address":"南市","lat":35.72003936197649,"lng":139.68795616044022,"choice":"crab"},{"name":"翼伊藤","address":"新町","lat":35.58225887280385,"lng":139.94133189085616,"choice":"durian"},{"name":"蓮山田","address":"新町","lat":35.53745974903821,"lng":139.8754355811037,"choice":"dragonfruit"},{"name":"愛菜井上","address":"湖村","lat":35.757167522810846,"lng":139.61990580894079,"choice":"jackfruit"},{"name":"海翔清水","address":"港町","lat":35.62084627030115,"lng":139.72657160517454,"choice":"jackfruit"},{"name":"太一山口","address":"東村","lat":35.55588235914296,"lng":139.83051670904106,"choice":"jackfruit"},{"name":"大翔山本","address":"西区","lat":35.727420402358504,"lng":139.6684033653425,"choice":"jackfruit"},{"name":"蒼空林","address":"新村","lat":35.730508804295475,"lng":139.80123448345145,"choice":"rambutan"},{"name":"海翔佐藤","address":"西区","lat":35.71107499350216,"lng":139.60311436725914,"choice":"jackfruit"},{"name":"愛菜田中","address":"西区","lat":35.562458693490804,"lng":139.83462872659823,"choice":"durian"},{"name":"陽菜吉田","address":"新市","lat":35.67002825103268,"lng":139.7809719687639,"choice":"durian"},{"name":"美羽山口","address":"北市","lat":35.718302086788086,"lng":139.78209695134953,"choice":"jackfruit"},{"name":"太一渡辺","address":"南区","lat":35.640347454888946,"lng":139.75255274984357,"choice":"crab"},{"name":"結愛吉田","address":"湖町","lat":35.67363565519733,"lng":139.59914286547814,"choice":"dragonfruit"},{"name":"心愛山口","address":"東村","lat":35.51562260411553,"lng":139.75024991745062,"choice":"durian"},{"name":"翼田中","address":"東村","lat":35.54485004427949,"lng":139.68963209750788,"choice":"dragonfruit"},{"name":"結衣木村","address":"新村","lat":35.62342530145758,"lng":139.65458722885862,"choice":"jackfruit"},{"name":"結愛山口","address":"湖区","lat":35.52430040709582,"lng":139.6466708547712,"choice":"crab"},{"name":"陽菜松本","address":"新町","lat":35.68678934708905,"lng":139.93814151024898,"choice":"crab"},{"name":"大和山本","address":"北市","lat":35.74032987196242,"lng":139.7105723141725,"choice":"durian"},{"name":"颯太松本","address":"南村","lat":35.74555158004106,"lng":139.7042328822688,"choice":"rambutan"},{"name":"陽菜山本","address":"西市","lat":35.67605165641512,"lng":139.92745681955057,"choice":"durian"},{"name":"美羽高橋","address":"東町","lat":35.63670205627952,"lng":139.84117921737547,"choice":"rambutan"},{"name":"陸斗吉田","address":"東市","lat":35.74579172466858,"lng":139.74314992608544,"choice":"durian"},{"name":"陽翔鈴木","address":"港市","lat":35.62775022117553,"lng":139.64232842315286,"choice":"durian"},{"name":"蒼空高橋","address":"北町","lat":35.50416357140976,"lng":139.7196061707654,"choice":"jackfruit"},{"name":"陽翔松本","address":"北町","lat":35.725256169591525,"lng":139.94823364966652,"choice":"rambutan"},{"name":"杏林","address":"南区","lat":35.51829581332372,"lng":139.68801711030508,"choice":"crab"},{"name":"結衣小林","address":"北村","lat":35.554435563734195,"lng":139.88911655025203,"choice":"crab"},{"name":"愛菜松本","address":"湖区","lat":35.757428496862005,"lng":139.9121773517798,"choice":"jackfruit"},{"name":"心愛佐藤","address":"北町","lat":35.7381976697843,"lng":139.8031442833937,"choice":"crab"},{"name":"蓮松本","address":"港町","lat":35.73518129413625,"lng":139.75982930591587,"choice":"dragonfruit"},{"name":"颯太山口","address":"南村","lat":35.632451357820166,"lng":139.9044072694565,"choice":"rambutan"},{"name":"海翔佐藤","address":"湖区","lat":35.54945143336562,"lng":139.63133303403245,"choice":"dragonfruit"},{"name":"陽菜林","address":"北町","lat":35.75698910178499,"lng":139.78615927613126,"choice":"crab"},{"name":"心愛井上","address":"南町","lat":35.64096222598279,"lng":139.5755395232063,"choice":"jackfruit"},{"name":"陽菜高橋","address":"東市","lat":35.75305733447115,"lng":139.5666095970151,"choice":"jackfruit"},{"name":"美羽佐々木","address":"新町","lat":35.725460588947655,"lng":139.85746567977245,"choice":"durian"},{"name":"美咲山田","address":"東区","lat":35.58546741897874,"lng":139.6873788416342,"choice":"crab"},{"name":"大翔小林","address":"港区","lat":35.658079139586214,"lng":139.63037811987945,"choice":"rambutan"},{"name":"颯太田中","address":"港区","lat":35.565541302487574,"lng":139.66885935472777,"choice":"jackfruit"},{"name":"美咲渡辺","address":"南村","lat":35.52648507015194,"lng":139.7850287321285,"choice":"jackfruit"},{"name":"結衣渡辺","address":"西市","lat":35.75168557923724,"lng":139.9036998123061,"choice":"crab"},{"name":"結愛林","address":"東市","lat":35.650176120711365,"lng":139.89116438719518,"choice":"dragonfruit"},{"name":"莉子佐藤","address":"東町","lat":35.69559361900825,"lng":139.87539733662447,"choice":"crab"},{"name":"結愛山本","address":"西町","lat":35.62335850345155,"lng":139.7883010900595,"choice":"dragonfruit"},{"name":"陽翔山田","address":"西町","lat":35.508733765846195,"lng":139.88954014583305,"choice":"rambutan"},{"name":"大翔清水","address":"西町","lat":35.6956604197129,"lng":139.77233543184212,"choice":"rambutan"},{"name":"蒼空佐藤","address":"湖村","lat":35.51226905649937,"lng":139.56697751479018,"choice":"crab"},{"name":"蓮山本","address":"東町","lat":35.616003711297964,"lng":139.5901820221694,"choice":"dragonfruit"},{"name":"太一山本","address":"東町","lat":35.511420312823354,"lng":139.8282395589025,"choice":"dragonfruit"},{"name":"樹木村","address":"湖町","lat":35.5473269459863,"lng":139.63892944892194,"choice":"jackfruit"},{"name":"美咲斎藤","address":"南村","lat":35.76934364384378,"lng":139.68161658726106,"choice":"dragonfruit"},{"name":"陽菜田中","address":"東市","lat":35.7559927629394,"lng":139.61399117541856,"choice":"durian"},{"name":"大和田中","address":"港市","lat":35.49507707081846,"lng":139.8342954348201,"choice":"jackfruit"},{"name":"翼小林","address":"南町","lat":35.51442018082516,"lng":139.81781126863515,"choice":"durian"},{"name":"結菜伊藤","address":"港村","lat":35.67092773532461,"lng":139.5638096123544,"choice":"dragonfruit"},{"name":"大翔山口","address":"湖市","lat":35.59964392980087,"lng":139.80351746548402,"choice":"durian"},{"name":"蓮吉田","address":"港町","lat":35.59125953939907,"lng":139.68885402487086,"choice":"durian"},{"name":"樹小林","address":"西区","lat":35.761285540504055,"lng":139.7953722607504,"choice":"durian"},{"name":"颯太林","address":"北町","lat":35.525414477979666,"lng":139.94818774716637,"choice":"jackfruit"},{"name":"大翔伊藤","address":"港市","lat":35.67089630789983,"lng":139.5922657986016,"choice":"crab"},{"name":"美咲木村","address":"港区","lat":35.51534356216895,"lng":139.59109860832822,"choice":"jackfruit"},{"name":"颯太山本","address":"西市","lat":35.67517141229034,"lng":139.64153621735716,"choice":"durian"},{"name":"蒼空佐藤","address":"湖市","lat":35.6818378759116,"lng":139.86728362993145,"choice":"durian"},{"name":"陽菜松本","address":"湖町","lat":35.51449110487695,"lng":139.59414491386713,"choice":"jackfruit"},{"name":"結衣吉田","address":"新村","lat":35.59021456984975,"lng":139.8518327309234,"choice":"rambutan"},{"name":"結衣佐々木","address":"湖区","lat":35.621220825185205,"lng":139.71459546970928,"choice":"dragonfruit"},{"name":"蓮高橋","address":"南市","lat":35.5841065818521,"lng":139.68816080915704,"choice":"durian"},{"name":"大和斎藤","address":"湖町","lat":35.6995256918992,"lng":139.93121292853206,"choice":"crab"},{"name":"樹山口","address":"北村","lat":35.73730101447193,"lng":139.63375432947217,"choice":"dragonfruit"},{"name":"大翔小林","address":"新市","lat":35.6079691829701,"lng":139.76706454515784,"choice":"dragonfruit"},{"name":"大和佐藤","address":"港村","lat":35.7074023582414,"lng":139.93894373419593,"choice":"dragonfruit"},{"name":"愛菜佐々木","address":"新町","lat":35.7310416820049,"lng":139.60940681084688,"choice":"rambutan"},{"name":"陸斗松本","address":"新市","lat":35.51053028003586,"lng":139.65902367007996,"choice":"durian"},{"name":"陽菜山田","address":"新町","lat":35.52040460332449,"lng":139.5836544875232,"choice":"rambutan"},{"name":"結愛渡辺","address":"新町","lat":35.62867040451478,"lng":139.78113972417074,"choice":"rambutan"},{"name":"愛菜高橋","address":"北町","lat":35.57636546219982,"lng":139.8445546761803,"choice":"crab"},{"name":"心愛吉田","address":"新区","lat":35.73094711542322,"lng":139.64640941668944,"choice":"jackfruit"},{"name":"樹佐藤","address":"東村","lat":35.645687107244804,"lng":139.94873656116198,"choice":"crab"},{"name":"陸斗吉田","address":"西町","lat":35.59069283904567,"lng":139.83284183189772,"choice":"dragonfruit"},{"name":"樹渡辺","address":"新町","lat":35.61069919866761,"lng":139.78989633239541,"choice":"dragonfruit"},{"name":"樹松本","address":"東村","lat":35.49841090141187,"lng":139.65940211175345,"choice":"dragonfruit"},{"name":"結衣井上","address":"新町","lat":35.59904974729695,"lng":139.89623606682133,"choice":"jackfruit"},{"name":"蓮井上","address":"東区","lat":35.63646396349324,"lng":139.67804448167936,"choice":"dragonfruit"},{"name":"美羽井上","address":"西区","lat":35.673555074374754,"lng":139.92737392955794,"choice":"jackfruit"},{"name":"翼渡辺","address":"南市","lat":35.59869757543892,"lng":139.94655323939304,"choice":"dragonfruit"},{"name":"美羽吉田","address":"新区","lat":35.70245796219464,"lng":139.84396653381563,"choice":"jackfruit"},{"name":"心愛田中","address":"西村","lat":35.58194035741125,"lng":139.60523054967967,"choice":"jackfruit"},{"name":"杏伊藤","address":"北町","lat":35.54889562364557,"lng":139.77159733585063,"choice":"durian"},{"name":"陸斗小林","address":"南区","lat":35.767222429992096,"lng":139.7043983080141,"choice":"durian"},{"name":"颯太鈴木","address":"湖区","lat":35.56466510814404,"lng":139.84357645078987,"choice":"dragonfruit"},{"name":"樹渡辺","address":"北区","lat":35.553455982312286,"lng":139.70010863721518,"choice":"durian"},{"name":"結愛林","address":"北市","lat":35.67275835315606,"lng":139.85437733170804,"choice":"jackfruit"},{"name":"結衣小林","address":"港町","lat":35.718041343005595,"lng":139.61694952199656,"choice":"dragonfruit"},{"name":"太一林","address":"東村","lat":35.60805197309393,"lng":139.73074545993452,"choice":"dragonfruit"},{"name":"結衣林","address":"湖町","lat":35.75202075542216,"lng":139.67556362226668,"choice":"rambutan"},{"name":"蓮鈴木","address":"湖村","lat":35.64090853147487,"lng":139.93671533713845,"choice":"jackfruit"},{"name":"愛菜山口","address":"東村","lat":35.497524105669356,"lng":139.58702113623036,"choice":"jackfruit"},{"name":"莉子渡辺","address":"新区","lat":35.49778184275292,"lng":139.685516923108,"choice":"jackfruit"},{"name":"大和木村","address":"西村","lat":35.54746136912717,"lng":139.81811232866642,"choice":"dragonfruit"},{"name":"陽菜山本","address":"北区","lat":35.71281753945075,"lng":139.6637985157522,"choice":"durian"},{"name":"太一伊藤","address":"湖村","lat":35.49751178715204,"lng":139.84345155691955,"choice":"durian"},{"name":"愛菜小林","address":"港区","lat":35.63605416236925,"lng":139.9362016228569,"choice":"jackfruit"},{"name":"海翔佐藤","address":"北市","lat":35.66704146996574,"lng":139.82778125599552,"choice":"jackfruit"},{"name":"陽翔山本","address":"湖町","lat":35.660575173530894,"lng":139.74111391885884,"choice":"rambutan"},{"name":"莉子佐々木","address":"西村","lat":35.53798502910292,"lng":139.7382473236751,"choice":"crab"},{"name":"陸斗佐々木","address":"東区","lat":35.55076933082007,"lng":139.64708900587263,"choice":"rambutan"},{"name":"結愛加藤","address":"北町","lat":35.70888369250217,"lng":139.92457573820943,"choice":"durian"},{"name":"愛菜佐々木","address":"湖村","lat":35.65621454682953,"lng":139.82492825924592,"choice":"durian"},{"name":"莉子加藤","address":"港町","lat":35.70569919255437,"lng":139.77134397309862,"choice":"dragonfruit"},{"name":"蒼空山田","address":"東区","lat":35.74061836311151,"lng":139.5723905279761,"choice":"crab"},{"name":"翼山口","address":"湖村","lat":35.54844861938833,"lng":139.84471816350845,"choice":"jackfruit"},{"name":"樹佐々木","address":"北市","lat":35.57257316021114,"lng":139.71934465120722,"choice":"durian"},{"name":"海翔伊藤","address":"北村","lat":35.73225943978886,"lng":139.8818552871298,"choice":"dragonfruit"},{"name":"颯太松本","address":"北市","lat":35.5253245568977,"lng":139.80374642891118,"choice":"rambutan"},{"name":"大和小林","address":"北町","lat":35.634474398408095,"lng":139.9139727940126,"choice":"crab"},{"name":"陸斗佐藤","address":"港村","lat":35.73699841996729,"lng":139.63578337035437,"choice":"dragonfruit"},{"name":"杏田中","address":"東区","lat":35.56428045155265,"lng":139.94783529641387,"choice":"durian"},{"name":"結愛渡辺","address":"港村","lat":35.61544691553448,"lng":139.68994883607903,"choice":"jackfruit"},{"name":"結菜伊藤","address":"西市","lat":35.55481212521616,"lng":139.62429227509645,"choice":"crab"},{"name":"海翔中村","address":"港村","lat":35.68619385943076,"lng":139.8166089787268,"choice":"crab"},{"name":"結菜井上","address":"港町","lat":35.709070054958524,"lng":139.6445739685253,"choice":"crab"},{"name":"結菜斎藤","address":"南村","lat":35.59451480279637,"lng":139.9251447128855,"choice":"crab"},{"name":"美咲吉田","address":"南村","lat":35.64697221496987,"lng":139.56306163990834,"choice":"rambutan"},{"name":"大和伊藤","address":"南市","lat":35.75810927881215,"lng":139.76280485173007,"choice":"rambutan"},{"name":"海翔渡辺","address":"港村","lat":35.51143522842718,"lng":139.7216646004127,"choice":"jackfruit"},{"name":"翼松本","address":"東村","lat":35.69982724932396,"lng":139.84847786900795,"choice":"durian"},{"name":"大和木村","address":"新村","lat":35.59271793025446,"lng":139.94965989854393,"choice":"jackfruit"},{"name":"結衣渡辺","address":"東区","lat":35.5786990585528,"lng":139.92070837498753,"choice":"durian"},{"name":"太一清水","address":"湖町","lat":35.66464944376651,"lng":139.6828788672854,"choice":"crab"},{"name":"愛菜井上","address":"港市","lat":35.752196114697945,"lng":139.61519166934585,"choice":"durian"},{"name":"陸斗渡辺","address":"西区","lat":35.5129806182557,"lng":139.8696276074039,"choice":"durian"},{"name":"心愛井上","address":"東村","lat":35.735797337486716,"lng":139.6036148241483,"choice":"durian"},{"name":"颯太木村","address":"北市","lat":35.49872907432313,"lng":139.57012535394742,"choice":"dragonfruit"},{"name":"蒼空井上","address":"東市","lat":35.63337364838653,"lng":139.8344333816072,"choice":"crab"},{"name":"樹山本","address":"湖町","lat":35.52023910133539,"lng":139.59686501256573,"choice":"durian"},{"name":"蒼空山田","address":"湖村","lat":35.733706753934136,"lng":139.73032957420813,"choice":"dragonfruit"},{"name":"大翔佐々木","address":"北区","lat":35.7182102300223,"lng":139.64773653179307,"choice":"crab"},{"name":"海翔山口","address":"新市","lat":35.759374615388246,"lng":139.66176960845672,"choice":"rambutan"},{"name":"結愛山田","address":"東町","lat":35.6740693505803,"lng":139.8697582423297,"choice":"durian"},{"name":"莉子山口","address":"南村","lat":35.71605252367041,"lng":139.73932716490597,"choice":"rambutan"},{"name":"結菜松本","address":"北村","lat":35.75147432127119,"lng":139.61033488428077,"choice":"jackfruit"},{"name":"心愛小林","address":"東市","lat":35.74930027348775,"lng":139.94272258656468,"choice":"crab"},{"name":"心愛田中","address":"湖区","lat":35.67928369965027,"lng":139.85913703542678,"choice":"crab"},{"name":"愛菜伊藤","address":"西村","lat":35.60242108716059,"lng":139.9121377217837,"choice":"dragonfruit"},{"name":"蓮清水","address":"新区","lat":35.74219497617117,"lng":139.78787460262672,"choice":"durian"},{"name":"愛菜清水","address":"湖区","lat":35.63798100648817,"lng":139.87432946765531,"choice":"dragonfruit"},{"name":"蒼空山田","address":"東村","lat":35.63432580533938,"lng":139.80227768756495,"choice":"jackfruit"},{"name":"陽菜伊藤","address":"新区","lat":35.50486632644299,"lng":139.76717096194844,"choice":"rambutan"},{"name":"美羽高橋","address":"北市","lat":35.70052650748754,"lng":139.8886746318973,"choice":"durian"},{"name":"心愛高橋","address":"湖区","lat":35.674543610929426,"lng":139.84139205838207,"choice":"dragonfruit"},{"name":"愛菜吉田","address":"港区","lat":35.59597381815028,"lng":139.92516951723735,"choice":"durian"},{"name":"蓮伊藤","address":"港区","lat":35.56441924523313,"lng":139.57992552839005,"choice":"crab"},{"name":"蒼空斎藤","address":"湖村","lat":35.533576093870586,"lng":139.8536083887073,"choice":"durian"},{"name":"美羽林","address":"北町","lat":35.54862552380772,"lng":139.8212233682481,"choice":"durian"},{"name":"美咲山田","address":"港町","lat":35.697643474931226,"lng":139.9180917442654,"choice":"crab"},{"name":"蓮清水","address":"東村","lat":35.76442700116954,"lng":139.68405645729868,"choice":"rambutan"},{"name":"美咲山本","address":"南町","lat":35.50612422840724,"lng":139.63651292666717,"choice":"durian"},{"name":"蓮佐藤","address":"湖区","lat":35.66536117914204,"lng":139.7601503862702,"choice":"jackfruit"},{"name":"美羽伊藤","address":"港区","lat":35.59444969785197,"lng":139.6228894898779,"choice":"dragonfruit"},{"name":"太一小林","address":"港区","lat":35.54671082778973,"lng":139.70162023570145,"choice":"dragonfruit"},{"name":"大和木村","address":"南村","lat":35.56228952132569,"lng":139.766220665903,"choice":"durian"},{"name":"美咲清水","address":"西村","lat":35.570039197926086,"lng":139.76872658834154,"choice":"durian"},{"name":"大翔伊藤","address":"西区","lat":35.72654187383378,"lng":139.5974297728134,"choice":"dragonfruit"},{"name":"蓮松本","address":"南区","lat":35.703343587286696,"lng":139.92630926847414,"choice":"crab"},{"name":"海翔渡辺","address":"南町","lat":35.76655911841149,"lng":139.71945010701808,"choice":"rambutan"},{"name":"結愛伊藤","address":"東市","lat":35.59559203316913,"lng":139.90415381923395,"choice":"durian"},{"name":"美咲斎藤","address":"南市","lat":35.76820072108909,"lng":139.8805622454208,"choice":"dragonfruit"},{"name":"陽翔渡辺","address":"東区","lat":35.67056146958989,"lng":139.68972420778115,"choice":"rambutan"},{"name":"大翔田中","address":"南区","lat":35.51845512462586,"lng":139.64343683710118,"choice":"jackfruit"},{"name":"蒼空林","address":"北区","lat":35.673978389000254,"lng":139.89542489514028,"choice":"dragonfruit"},{"name":"結愛清水","address":"港村","lat":35.621034211773825,"lng":139.8123136675301,"choice":"dragonfruit"},{"name":"結愛佐々木","address":"湖区","lat":35.699638972374075,"lng":139.78835127237113,"choice":"jackfruit"},{"name":"陽翔佐々木","address":"西区","lat":35.539231591121215,"lng":139.92671897829564,"choice":"durian"},{"name":"蒼空木村","address":"湖町","lat":35.52095902872073,"lng":139.8777456865474,"choice":"rambutan"},{"name":"陸斗井上","address":"東区","lat":35.66449561589543,"lng":139.57222337401714,"choice":"crab"},{"name":"太一山口","address":"湖区","lat":35.57079372228895,"lng":139.63898268451229,"choice":"jackfruit"},{"name":"陽菜渡辺","address":"北町","lat":35.514244794623764,"lng":139.92631280729108,"choice":"crab"},{"name":"大翔高橋","address":"港市","lat":35.698151078595,"lng":139.66810172962604,"choice":"durian"},{"name":"陽菜山本","address":"東市","lat":35.67697051332505,"lng":139.9419891878981,"choice":"durian"},{"name":"結衣佐々木","address":"港区","lat":35.51847261987028,"lng":139.6096711745804,"choice":"rambutan"},{"name":"結衣山口","address":"港村","lat":35.61601722321268,"lng":139.90320251993526,"choice":"rambutan"},{"name":"美羽斎藤","address":"南市","lat":35.76562740114863,"lng":139.56604037216127,"choice":"crab"},{"name":"陽翔鈴木","address":"東町","lat":35.756290400310526,"lng":139.8982507147078,"choice":"rambutan"},{"name":"心愛山本","address":"新町","lat":35.70946949763467,"lng":139.6925261408008,"choice":"rambutan"},{"name":"海翔伊藤","address":"西村","lat":35.682137792978565,"lng":139.6087469713215,"choice":"rambutan"},{"name":"杏斎藤","address":"西村","lat":35.55412738104674,"lng":139.67091780682415,"choice":"dragonfruit"},{"name":"愛菜木村","address":"湖市","lat":35.69569709604469,"lng":139.6774387458362,"choice":"dragonfruit"},{"name":"結衣吉田","address":"湖市","lat":35.65367954024463,"lng":139.63124092880213,"choice":"jackfruit"},{"name":"海翔山口","address":"西村","lat":35.671247566233156,"lng":139.58786055944577,"choice":"jackfruit"},{"name":"大和鈴木","address":"東村","lat":35.627442168103,"lng":139.6841633409389,"choice":"dragonfruit"},{"name":"陸斗吉田","address":"東市","lat":35.69398718433564,"lng":139.62301367923627,"choice":"dragonfruit"},{"name":"莉子渡辺","address":"新区","lat":35.56712006707225,"lng":139.79572586338847,"choice":"jackfruit"},{"name":"蒼空田中","address":"南市","lat":35.72388322100089,"lng":139.71869289481495,"choice":"crab"},{"name":"愛菜加藤","address":"港村","lat":35.58924360715328,"lng":139.61420120193594,"choice":"rambutan"},{"name":"陽菜佐々木","address":"西市","lat":35.5221979566574,"lng":139.8991132359654,"choice":"rambutan"},{"name":"心愛加藤","address":"南村","lat":35.58850179987302,"lng":139.80957659523307,"choice":"jackfruit"},{"name":"大翔渡辺","address":"港区","lat":35.732523721881385,"lng":139.86952953330365,"choice":"crab"},{"name":"心愛林","address":"北区","lat":35.49617698880311,"lng":139.65924385823868,"choice":"rambutan"},{"name":"蓮斎藤","address":"西区","lat":35.61608144328616,"lng":139.70807901433906,"choice":"jackfruit"},{"name":"翼斎藤","address":"東村","lat":35.681744637288375,"lng":139.57276512045192,"choice":"dragonfruit"},{"name":"颯太山田","address":"新町","lat":35.546188728134425,"lng":139.65448463246398,"choice":"rambutan"},{"name":"海翔田中","address":"西村","lat":35.75180197810083,"lng":139.9364727657138,"choice":"durian"},{"name":"陸斗佐藤","address":"西区","lat":35.537023118138436,"lng":139.90922982981786,"choice":"crab"},{"name":"陽翔渡辺","address":"北市","lat":35.60769197561432,"lng":139.93368529651323,"choice":"jackfruit"},{"name":"心愛鈴木","address":"北市","lat":35.65925187934638,"lng":139.8180705942367,"choice":"dragonfruit"},{"name":"美羽林","address":"東町","lat":35.74326866880836,"lng":139.67649606025512,"choice":"dragonfruit"},{"name":"愛菜佐々木","address":"湖町","lat":35.76572431245132,"lng":139.57520512159525,"choice":"dragonfruit"},{"name":"蒼空伊藤","address":"新町","lat":35.70610682292703,"lng":139.78124530221308,"choice":"crab"},{"name":"陽翔小林","address":"北市","lat":35.58282776275565,"lng":139.7896100503645,"choice":"jackfruit"},{"name":"陽菜伊藤","address":"新町","lat":35.525081044812126,"lng":139.74254317621393,"choice":"rambutan"},{"name":"樹松本","address":"港市","lat":35.553098966221086,"lng":139.65029473773617,"choice":"crab"},{"name":"大翔渡辺","address":"西町","lat":35.57245758460392,"lng":139.70042182843025,"choice":"durian"},{"name":"蒼空山本","address":"新区","lat":35.658632952459484,"lng":139.93032532466881,"choice":"dragonfruit"},{"name":"樹松本","address":"東町","lat":35.655685047010586,"lng":139.90616168883068,"choice":"dragonfruit"},{"name":"太一田中","address":"南村","lat":35.5497006336412,"lng":139.90795241190122,"choice":"durian"},{"name":"蒼空伊藤","address":"港市","lat":35.679405009812086,"lng":139.58224187140507,"choice":"durian"},{"name":"蒼空田中","address":"西市","lat":35.58519151609386,"lng":139.80810634338064,"choice":"rambutan"},{"name":"美咲清水","address":"南村","lat":35.66096379283806,"lng":139.80579060151857,"choice":"durian"},{"name":"大翔渡辺","address":"湖市","lat":35.72997488433725,"lng":139.77809166893798,"choice":"durian"},{"name":"結衣伊藤","address":"新区","lat":35.7499167643955,"lng":139.91886713152581,"choice":"dragonfruit"},{"name":"樹山口","address":"湖町","lat":35.5105450233608,"lng":139.932580102721,"choice":"dragonfruit"},{"name":"結衣小林","address":"南区","lat":35.60447009409439,"lng":139.79340965329635,"choice":"rambutan"},{"name":"結菜清水","address":"港村","lat":35.633161881132786,"lng":139.86677728500024,"choice":"dragonfruit"},{"name":"海翔中村","address":"北市","lat":35.76441789418375,"lng":139.78570457186137,"choice":"jackfruit"},{"name":"莉子佐々木","address":"西区","lat":35.696429536500474,"lng":139.59202292359674,"choice":"jackfruit"},{"name":"愛菜山田","address":"東町","lat":35.55104178744914,"lng":139.7076047734941,"choice":"rambutan"},{"name":"太一山本","address":"南町","lat":35.718126792754084,"lng":139.59328868137123,"choice":"durian"},{"name":"結衣山口","address":"港市","lat":35.56005962924334,"lng":139.89763107427734,"choice":"dragonfruit"},{"name":"陸斗吉田","address":"東区","lat":35.73298083300383,"lng":139.7386193835124,"choice":"jackfruit"},{"name":"海翔松本","address":"新市","lat":35.55128262497982,"lng":139.56265872194348,"choice":"dragonfruit"},{"name":"愛菜伊藤","address":"東町","lat":35.575301796065595,"lng":139.80314416727117,"choice":"jackfruit"},{"name":"大和中村","address":"湖市","lat":35.61093002281406,"lng":139.9174512583366,"choice":"dragonfruit"},{"name":"翼吉田","address":"東村","lat":35.54514180076696,"lng":139.7113861175783,"choice":"rambutan"},{"name":"陽翔木村","address":"東村","lat":35.74120652153953,"lng":139.9476506677079,"choice":"durian"},{"name":"蒼空鈴木","address":"港村","lat":35.63187928842025,"lng":139.7831729919975,"choice":"dragonfruit"},{"name":"結衣田中","address":"西市","lat":35.50230698722303,"lng":139.88285708121444,"choice":"dragonfruit"},{"name":"蓮斎藤","address":"湖市","lat":35.6204975569151,"lng":139.90143112315184,"choice":"crab"},{"name":"結菜吉田","address":"東市","lat":35.733482491703604,"lng":139.87911233109136,"choice":"crab"},{"name":"大翔中村","address":"湖区","lat":35.499265047488855,"lng":139.58796797982424,"choice":"rambutan"},{"name":"心愛木村","address":"南区","lat":35.75923649063893,"lng":139.77938406135408,"choice":"rambutan"},{"name":"大和佐藤","address":"東町","lat":35.60713623524297,"lng":139.6229999390272,"choice":"durian"},{"name":"陽翔松本","address":"西町","lat":35.65485867246676,"lng":139.7811428050761,"choice":"jackfruit"},{"name":"樹山口","address":"西町","lat":35.76938905238962,"lng":139.55851871773856,"choice":"rambutan"},{"name":"樹中村","address":"南市","lat":35.62501026721719,"lng":139.69164454284734,"choice":"durian"},{"name":"太一吉田","address":"新村","lat":35.73368591063807,"lng":139.72732822248514,"choice":"jackfruit"},{"name":"蓮伊藤","address":"西区","lat":35.62975814630618,"lng":139.5880163977185,"choice":"durian"},{"name":"結愛吉田","address":"南市","lat":35.6787154584558,"lng":139.62555359832805,"choice":"dragonfruit"},{"name":"愛菜清水","address":"湖区","lat":35.7575502655434,"lng":139.91687915084742,"choice":"durian"},{"name":"心愛斎藤","address":"北村","lat":35.64242110975934,"lng":139.79117716928621,"choice":"crab"},{"name":"蓮林","address":"西市","lat":35.76725026545074,"lng":139.63497792167507,"choice":"durian"},{"name":"蓮斎藤","address":"東村","lat":35.6671025943209,"lng":139.74636927041718,"choice":"rambutan"},{"name":"颯太松本","address":"湖区","lat":35.642009749981014,"lng":139.63439050461204,"choice":"dragonfruit"},{"name":"美咲吉田","address":"湖村","lat":35.49640679371967,"lng":139.93410394609373,"choice":"crab"},{"name":"蓮鈴木","address":"北町","lat":35.71815808345156,"lng":139.62226187326476,"choice":"durian"},{"name":"結菜松本","address":"北町","lat":35.58259906845809,"lng":139.8466984910985,"choice":"jackfruit"},{"name":"杏田中","address":"新区","lat":35.52892373073654,"lng":139.70357375331133,"choice":"durian"},{"name":"愛菜田中","address":"新区","lat":35.671505531164286,"lng":139.88227958864437,"choice":"dragonfruit"},{"name":"樹渡辺","address":"北村","lat":35.5725633795472,"lng":139.82931312533952,"choice":"durian"},{"name":"愛菜清水","address":"港区","lat":35.50791578911979,"lng":139.79725126417046,"choice":"rambutan"},{"name":"陸斗吉田","address":"北市","lat":35.55512558828904,"lng":139.87927135852522,"choice":"crab"},{"name":"美咲伊藤","address":"西町","lat":35.634932654151655,"lng":139.88397041114345,"choice":"durian"},{"name":"大和松本","address":"港区","lat":35.65079932372872,"lng":139.6826737000958,"choice":"dragonfruit"},{"name":"杏松本","address":"南村","lat":35.55937788912581,"lng":139.83896457888238,"choice":"crab"},{"name":"太一山田","address":"港町","lat":35.72894820847201,"lng":139.83097655153244,"choice":"crab"},{"name":"陽翔清水","address":"湖町","lat":35.64151096709553,"lng":139.74883830183995,"choice":"jackfruit"},{"name":"陸斗佐々木","address":"西村","lat":35.605613119737775,"lng":139.9229770322441,"choice":"durian"},{"name":"蓮山本","address":"東市","lat":35.64881685036271,"lng":139.5631990983799,"choice":"rambutan"},{"name":"心愛山田","address":"北町","lat":35.616251142672446,"lng":139.56609574023028,"choice":"rambutan"},{"name":"大和佐藤","address":"港市","lat":35.69990920650799,"lng":139.90660979205606,"choice":"rambutan"},{"name":"陸斗伊藤","address":"南町","lat":35.554407600196,"lng":139.68464337683383,"choice":"rambutan"},{"name":"蒼空渡辺","address":"西村","lat":35.68733125538094,"lng":139.69551249852145,"choice":"dragonfruit"},{"name":"陸斗佐々木","address":"新区","lat":35.499480717400324,"lng":139.78239141275446,"choice":"durian"},{"name":"颯太斎藤","address":"北村","lat":35.645540838039864,"lng":139.83852045051614,"choice":"rambutan"},{"name":"海翔小林","address":"湖町","lat":35.65843549188313,"lng":139.8755088045948,"choice":"dragonfruit"},{"name":"蒼空小林","address":"港市","lat":35.62148733341806,"lng":139.6292899831585,"choice":"jackfruit"},{"name":"心愛佐藤","address":"北区","lat":35.588932639578026,"lng":139.6579661658446,"choice":"durian"},{"name":"心愛山本","address":"湖町","lat":35.716759604132704,"lng":139.9323288607082,"choice":"dragonfruit"},{"name":"陽翔山口","address":"港町","lat":35.64584174499179,"lng":139.80442246151122,"choice":"durian"},{"name":"大和田中","address":"南区","lat":35.57419693771373,"lng":139.73276935447117,"choice":"rambutan"},{"name":"杏渡辺","address":"東町","lat":35.5580555895345,"lng":139.78691752207584,"choice":"durian"},{"name":"陸斗佐藤","address":"東村","lat":35.54878926415091,"lng":139.82010333358116,"choice":"jackfruit"},{"name":"樹木村","address":"北市","lat":35.518194227535965,"lng":139.69690976203185,"choice":"durian"},{"name":"莉子松本","address":"湖区","lat":35.6178975527721,"lng":139.73914700214428,"choice":"crab"},{"name":"結衣鈴木","address":"東区","lat":35.59281861605652,"lng":139.69948089530308,"choice":"dragonfruit"},{"name":"愛菜加藤","address":"東町","lat":35.51742245492677,"lng":139.61860950221765,"choice":"durian"},{"name":"大和高橋","address":"東町","lat":35.53544899365259,"lng":139.72053860079134,"choice":"dragonfruit"},{"name":"心愛林","address":"東区","lat":35.544221881076396,"lng":139.83731734248474,"choice":"durian"},{"name":"杏鈴木","address":"湖村","lat":35.68909024294962,"lng":139.58002780351322,"choice":"jackfruit"},{"name":"海翔山口","address":"湖区","lat":35.619494250983685,"lng":139.76571082235145,"choice":"durian"},{"name":"愛菜加藤","address":"北町","lat":35.541182556904936,"lng":139.76779415541802,"choice":"dragonfruit"},{"name":"大翔小林","address":"西村","lat":35.73130672516125,"lng":139.9364022402344,"choice":"crab"},{"name":"颯太小林","address":"港町","lat":35.537441984776954,"lng":139.5872504254591,"choice":"dragonfruit"},{"name":"陽菜鈴木","address":"北区","lat":35.653512343672574,"lng":139.59585168326714,"choice":"dragonfruit"},{"name":"結愛中村","address":"南区","lat":35.70232662594393,"lng":139.68911605352127,"choice":"durian"},{"name":"陽菜木村","address":"湖村","lat":35.70143871566023,"lng":139.6125462292111,"choice":"dragonfruit"},{"name":"莉子松本","address":"北町","lat":35.65477751944838,"lng":139.81277537920843,"choice":"rambutan"},{"name":"結衣井上","address":"東村","lat":35.66042057769337,"lng":139.93789969601298,"choice":"jackfruit"},{"name":"大翔鈴木","address":"西村","lat":35.713274544718516,"lng":139.76648776961557,"choice":"durian"},{"name":"心愛山口","address":"新市","lat":35.608413208502924,"lng":139.7468467388477,"choice":"dragonfruit"},{"name":"翼木村","address":"東市","lat":35.750993355769204,"lng":139.62334507829945,"choice":"crab"},{"name":"心愛加藤","address":"南町","lat":35.67948526969069,"lng":139.73318423569248,"choice":"durian"},{"name":"大和井上","address":"湖町","lat":35.556894181350884,"lng":139.72969952407834,"choice":"rambutan"},{"name":"美羽伊藤","address":"南村","lat":35.70883839912206,"lng":139.80157133740184,"choice":"jackfruit"},{"name":"太一加藤","address":"港村","lat":35.64853446596369,"lng":139.9383276011584,"choice":"crab"},{"name":"陽菜小林","address":"南町","lat":35.73298396415025,"lng":139.81486036558516,"choice":"jackfruit"},{"name":"結菜佐藤","address":"湖村","lat":35.55853665491722,"lng":139.82240438872185,"choice":"jackfruit"},{"name":"陸斗高橋","address":"東村","lat":35.5320648011683,"lng":139.83866158372305,"choice":"crab"},{"name":"愛菜山田","address":"北区","lat":35.70652218294797,"lng":139.7298264335299,"choice":"dragonfruit"},{"name":"海翔佐藤","address":"西区","lat":35.740193765676764,"lng":139.65751680010146,"choice":"durian"},{"name":"結菜斎藤","address":"北村","lat":35.544758161048115,"lng":139.65973138513255,"choice":"durian"},{"name":"蒼空井上","address":"東区","lat":35.69883894555249,"lng":139.65330940106105,"choice":"jackfruit"},{"name":"杏吉田","address":"湖区","lat":35.533854184761076,"lng":139.8509567105709,"choice":"jackfruit"},{"name":"結衣鈴木","address":"港区","lat":35.68184619907917,"lng":139.6808052636417,"choice":"dragonfruit"},{"name":"心愛高橋","address":"湖市","lat":35.503838863250785,"lng":139.831830989936,"choice":"crab"},{"name":"結衣佐々木","address":"港区","lat":35.542076632400736,"lng":139.9299631801225,"choice":"jackfruit"},{"name":"結衣山本","address":"港区","lat":35.681044365016376,"lng":139.92604675057166,"choice":"rambutan"},{"name":"陽菜井上","address":"港町","lat":35.738012138830115,"lng":139.93656766499117,"choice":"crab"},{"name":"蓮山田","address":"南町","lat":35.55059617414348,"lng":139.56253484693502,"choice":"crab"},{"name":"蒼空斎藤","address":"北区","lat":35.60917244903703,"lng":139.9252723997103,"choice":"dragonfruit"},{"name":"海翔清水","address":"東町","lat":35.66281889131175,"lng":139.75171339501273,"choice":"dragonfruit"},{"name":"結菜鈴木","address":"東区","lat":35.62723547953058,"lng":139.7417931451027,"choice":"durian"},{"name":"杏山口","address":"南町","lat":35.59265186602257,"lng":139.7110757244291,"choice":"jackfruit"},{"name":"翼吉田","address":"港市","lat":35.637963531735494,"lng":139.62763819676664,"choice":"rambutan"},{"name":"陽翔井上","address":"西村","lat":35.56462093458868,"lng":139.625993034003,"choice":"rambutan"},{"name":"美羽渡辺","address":"新町","lat":35.73010779986109,"lng":139.91467144157383,"choice":"jackfruit"},{"name":"結菜山口","address":"湖村","lat":35.74142632013219,"lng":139.8875478174198,"choice":"dragonfruit"},{"name":"美羽伊藤","address":"北町","lat":35.668128366497015,"lng":139.89463492052448,"choice":"rambutan"},{"name":"愛菜佐々木","address":"北市","lat":35.60398528627326,"lng":139.90586293805492,"choice":"crab"},{"name":"大翔井上","address":"新区","lat":35.51433421935006,"lng":139.86347662000682,"choice":"crab"},{"name":"颯太中村","address":"南区","lat":35.58610570893679,"lng":139.6941349671248,"choice":"jackfruit"},{"name":"海翔伊藤","address":"港村","lat":35.63938097540871,"lng":139.6653395978482,"choice":"dragonfruit"},{"name":"太一高橋","address":"南町","lat":35.52988664434561,"lng":139.89214830084134,"choice":"dragonfruit"},{"name":"翼林","address":"西区","lat":35.54706193285004,"lng":139.6797555838783,"choice":"rambutan"},{"name":"愛菜加藤","address":"南村","lat":35.76649436049879,"lng":139.82237045405464,"choice":"crab"},{"name":"心愛加藤","address":"西村","lat":35.75797515389065,"lng":139.82683834428732,"choice":"rambutan"},{"name":"結菜加藤","address":"南村","lat":35.72525503966864,"lng":139.75220420219676,"choice":"rambutan"},{"name":"樹吉田","address":"北村","lat":35.68450654925889,"lng":139.74283965225126,"choice":"dragonfruit"},{"name":"樹清水","address":"港区","lat":35.69975920730154,"lng":139.70638037632094,"choice":"durian"},{"name":"太一斎藤","address":"湖区","lat":35.54218304869758,"lng":139.88519181500973,"choice":"dragonfruit"},{"name":"陽翔渡辺","address":"北村","lat":35.56546137012628,"lng":139.87030160070952,"choice":"durian"},{"name":"結愛松本","address":"北町","lat":35.570013108000836,"lng":139.7720777235514,"choice":"rambutan"},{"name":"莉子佐藤","address":"新村","lat":35.67491247427684,"lng":139.84635607166084,"choice":"durian"},{"name":"陸斗小林","address":"北村","lat":35.72410251462591,"lng":139.6874459272192,"choice":"durian"},{"name":"莉子斎藤","address":"港区","lat":35.63268193577839,"lng":139.71983289656174,"choice":"rambutan"},{"name":"美羽鈴木","address":"東村","lat":35.585102515124085,"lng":139.75766845713989,"choice":"jackfruit"},{"name":"愛菜田中","address":"新区","lat":35.55609541388113,"lng":139.83927857587398,"choice":"crab"},{"name":"蓮吉田","address":"湖村","lat":35.63084337098104,"lng":139.9103236101295,"choice":"crab"},{"name":"陽菜斎藤","address":"東村","lat":35.5573723566968,"lng":139.92137261467747,"choice":"crab"},{"name":"結衣鈴木","address":"南市","lat":35.50303771445176,"lng":139.69266802898454,"choice":"rambutan"},{"name":"太一山口","address":"湖町","lat":35.64822499758723,"lng":139.56522316041014,"choice":"crab"},{"name":"莉子山口","address":"東市","lat":35.565319565885105,"lng":139.9460853816242,"choice":"jackfruit"},{"name":"莉子鈴木","address":"新村","lat":35.647588466737396,"lng":139.86129598484553,"choice":"rambutan"},{"name":"蒼空加藤","address":"東市","lat":35.50325256523529,"lng":139.9038523440991,"choice":"jackfruit"},{"name":"大和佐々木","address":"新市","lat":35.727431445847664,"lng":139.62213366073922,"choice":"jackfruit"},{"name":"陽翔山本","address":"南村","lat":35.554149181701305,"lng":139.6984600747759,"choice":"jackfruit"},{"name":"美羽山田","address":"港市","lat":35.75927421808333,"lng":139.74731124557184,"choice":"durian"},{"name":"美咲中村","address":"東区","lat":35.58965415636614,"lng":139.5700683650901,"choice":"rambutan"},{"name":"太一井上","address":"北市","lat":35.54720781435701,"lng":139.63289915003742,"choice":"jackfruit"},{"name":"美咲伊藤","address":"北町","lat":35.63700399950442,"lng":139.6277078334439,"choice":"rambutan"},{"name":"蓮山口","address":"西市","lat":35.724931455572026,"lng":139.5806329009668,"choice":"crab"},{"name":"美羽井上","address":"南区","lat":35.71172933620445,"lng":139.82447140186167,"choice":"durian"},{"name":"海翔山本","address":"西町","lat":35.722280065174736,"lng":139.82035031933222,"choice":"crab"},{"name":"莉子山本","address":"東市","lat":35.65256490075928,"lng":139.7740027553621,"choice":"rambutan"},{"name":"愛菜鈴木","address":"西村","lat":35.64476927584509,"lng":139.65832995655336,"choice":"crab"},{"name":"心愛佐々木","address":"北町","lat":35.501439964375834,"lng":139.63406338192937,"choice":"crab"},{"name":"颯太斎藤","address":"北村","lat":35.706570353756696,"lng":139.78499267683722,"choice":"durian"},{"name":"蓮鈴木","address":"湖区","lat":35.65633161203402,"lng":139.71054144546883,"choice":"rambutan"},{"name":"心愛木村","address":"港村","lat":35.659113298531,"lng":139.7483517548618,"choice":"dragonfruit"},{"name":"颯太斎藤","address":"西市","lat":35.715088837134125,"lng":139.80219780594138,"choice":"dragonfruit"},{"name":"愛菜加藤","address":"湖区","lat":35.645692054243945,"lng":139.88266171511816,"choice":"jackfruit"},{"name":"陽菜山本","address":"南町","lat":35.74992018319189,"lng":139.71333486168822,"choice":"dragonfruit"},{"name":"大和斎藤","address":"湖町","lat":35.60181648476297,"lng":139.8215700495797,"choice":"jackfruit"},{"name":"大翔林","address":"北村","lat":35.66872062583023,"lng":139.58534510359183,"choice":"durian"},{"name":"大翔高橋","address":"港村","lat":35.53716359454499,"lng":139.67274725216694,"choice":"jackfruit"},{"name":"蓮中村","address":"新市","lat":35.59307352864606,"lng":139.82721191735808,"choice":"durian"},{"name":"愛菜吉田","address":"南市","lat":35.49812571075376,"lng":139.71174516569008,"choice":"crab"},{"name":"陸斗清水","address":"西町","lat":35.74193654139802,"lng":139.69794512188895,"choice":"dragonfruit"},{"name":"蒼空井上","address":"港町","lat":35.742466222708956,"lng":139.5641922311291,"choice":"durian"},{"name":"蓮佐々木","address":"港区","lat":35.60621872365673,"lng":139.83020366685173,"choice":"crab"},{"name":"杏佐々木","address":"東村","lat":35.72006495198346,"lng":139.88218598761821,"choice":"rambutan"},{"name":"心愛伊藤","address":"新町","lat":35.663571873220704,"lng":139.80136174809886,"choice":"rambutan"},{"name":"結衣井上","address":"新村","lat":35.608016514161,"lng":139.8349925761091,"choice":"jackfruit"},{"name":"結衣中村","address":"南区","lat":35.507096938788195,"lng":139.74463478312822,"choice":"rambutan"},{"name":"結愛加藤","address":"港村","lat":35.64901376155233,"lng":139.55869133519718,"choice":"jackfruit"},{"name":"太一伊藤","address":"西区","lat":35.73506138679413,"lng":139.8989421877606,"choice":"rambutan"},{"name":"結菜林","address":"南市","lat":35.68267350300408,"lng":139.84738158105114,"choice":"crab"},{"name":"結菜斎藤","address":"西町","lat":35.61043158815165,"lng":139.72491534131876,"choice":"durian"},{"name":"陸斗井上","address":"東市","lat":35.571489545903695,"lng":139.71627168006506,"choice":"dragonfruit"},{"name":"蓮山口","address":"港村","lat":35.70419978814035,"lng":139.8054197386342,"choice":"durian"},{"name":"美咲伊藤","address":"西町","lat":35.54106451744246,"lng":139.7674681256179,"choice":"dragonfruit"},{"name":"大翔林","address":"港市","lat":35.528109011938234,"lng":139.59514455703624,"choice":"jackfruit"},{"name":"蒼空林","address":"南町","lat":35.497446626434915,"lng":139.76821805794313,"choice":"crab"},{"name":"大和山口","address":"東区","lat":35.73191101223306,"lng":139.80030669137406,"choice":"jackfruit"},{"name":"莉子松本","address":"北町","lat":35.62965435882769,"lng":139.77760842944318,"choice":"crab"},{"name":"心愛伊藤","address":"湖町","lat":35.68779722538828,"lng":139.77300213683216,"choice":"crab"},{"name":"大翔小林","address":"湖市","lat":35.50654810246197,"lng":139.6230060331914,"choice":"durian"},{"name":"蓮中村","address":"北町","lat":35.62243526776198,"lng":139.7512324373669,"choice":"jackfruit"},{"name":"愛菜田中","address":"港村","lat":35.69030473970829,"lng":139.69662100540594,"choice":"dragonfruit"},{"name":"杏林","address":"港区","lat":35.58809893306681,"lng":139.60419873488996,"choice":"durian"},{"name":"結衣鈴木","address":"北市","lat":35.49643878292171,"lng":139.74913857466197,"choice":"durian"},{"name":"杏山口","address":"東村","lat":35.759918308831324,"lng":139.85699843837622,"choice":"rambutan"},{"name":"愛菜井上","address":"南市","lat":35.594238761029956,"lng":139.63495772980653,"choice":"crab"},{"name":"結愛加藤","address":"南区","lat":35.73682959497639,"lng":139.65313897501085,"choice":"crab"},{"name":"蒼空佐々木","address":"東村","lat":35.71864343416047,"lng":139.92325734759174,"choice":"rambutan"},{"name":"愛菜伊藤","address":"東区","lat":35.49540082833039,"lng":139.8822621210173,"choice":"dragonfruit"},{"name":"結衣井上","address":"北村","lat":35.67342822872105,"lng":139.79659520170648,"choice":"rambutan"},{"name":"陸斗松本","address":"新市","lat":35.57668739083088,"lng":139.81392091633106,"choice":"crab"},{"name":"心愛渡辺","address":"新町","lat":35.58993244039589,"lng":139.92349494958034,"choice":"rambutan"},{"name":"結菜鈴木","address":"新区","lat":35.5107511316198,"lng":139.60016268760734,"choice":"jackfruit"},{"name":"海翔林","address":"西村","lat":35.61740265114214,"lng":139.65478645340104,"choice":"rambutan"},{"name":"莉子渡辺","address":"港町","lat":35.55319727939398,"lng":139.60204521472653,"choice":"crab"},{"name":"美羽井上","address":"港町","lat":35.75700595802265,"lng":139.81499828119001,"choice":"jackfruit"},{"name":"大翔田中","address":"港区","lat":35.64620163938676,"lng":139.75491998798793,"choice":"jackfruit"},{"name":"颯太山田","address":"北町","lat":35.611840855821754,"lng":139.94122804646193,"choice":"crab"},{"name":"結愛山田","address":"北村","lat":35.54014962125821,"lng":139.7346225428339,"choice":"dragonfruit"},{"name":"結愛吉田","address":"港市","lat":35.739962176802514,"lng":139.71589589241913,"choice":"jackfruit"},{"name":"結愛山口","address":"港市","lat":35.642991291828366,"lng":139.78647805846367,"choice":"rambutan"},{"name":"陽菜伊藤","address":"南市","lat":35.50936902769336,"lng":139.58757360409695,"choice":"dragonfruit"},{"name":"美咲松本","address":"北町","lat":35.60318799297753,"lng":139.76357755380445,"choice":"durian"},{"name":"陸斗井上","address":"西町","lat":35.7426729622513,"lng":139.76211216247256,"choice":"crab"},{"name":"海翔井上","address":"港市","lat":35.524877331612544,"lng":139.84141052500436,"choice":"crab"},{"name":"心愛斎藤","address":"湖区","lat":35.59368420224417,"lng":139.69358905300132,"choice":"dragonfruit"},{"name":"太一佐藤","address":"新村","lat":35.62437786124685,"lng":139.87776109256666,"choice":"durian"},{"name":"美羽渡辺","address":"湖町","lat":35.55923177624748,"lng":139.91152687801645,"choice":"jackfruit"},{"name":"樹山本","address":"港市","lat":35.64316869906792,"lng":139.71735189153725,"choice":"crab"},{"name":"蓮高橋","address":"西区","lat":35.75979307932871,"lng":139.89993293266528,"choice":"rambutan"},{"name":"愛菜佐々木","address":"東町","lat":35.70191051785692,"lng":139.94021059884258,"choice":"jackfruit"},{"name":"結愛山田","address":"北市","lat":35.5959731575132,"lng":139.6451434586975,"choice":"jackfruit"},{"name":"莉子田中","address":"新町","lat":35.62234626445894,"lng":139.64879597208989,"choice":"crab"},{"name":"颯太山口","address":"北村","lat":35.62276248621996,"lng":139.5692672748317,"choice":"jackfruit"},{"name":"陽翔斎藤","address":"東区","lat":35.54853145023013,"lng":139.6063442866243,"choice":"crab"},{"name":"陽翔井上","address":"東市","lat":35.713361293784665,"lng":139.91188301525855,"choice":"crab"},{"name":"蒼空吉田","address":"港市","lat":35.568620567894996,"lng":139.8040003571279,"choice":"durian"},{"name":"大翔山本","address":"北区","lat":35.59784225394202,"lng":139.6064124403842,"choice":"rambutan"},{"name":"美羽佐藤","address":"港市","lat":35.641659014195284,"lng":139.69836272393044,"choice":"jackfruit"},{"name":"海翔清水","address":"新村","lat":35.74576457371134,"lng":139.8124124063388,"choice":"jackfruit"},{"name":"海翔清水","address":"西町","lat":35.612783373947,"lng":139.70844913529862,"choice":"durian"},{"name":"陽菜吉田","address":"北村","lat":35.636157818010055,"lng":139.907810702699,"choice":"dragonfruit"},{"name":"大和鈴木","address":"西村","lat":35.71858577461721,"lng":139.57157579623876,"choice":"rambutan"},{"name":"美咲高橋","address":"東区","lat":35.65455686352115,"lng":139.9380731446022,"choice":"rambutan"},{"name":"結菜山田","address":"湖町","lat":35.66933279432302,"lng":139.72681650516196,"choice":"jackfruit"},{"name":"樹伊藤","address":"南村","lat":35.678498578079086,"lng":139.71705625534045,"choice":"jackfruit"},{"name":"杏山口","address":"湖市","lat":35.60851050255158,"lng":139.67625169536586,"choice":"crab"},{"name":"陽菜鈴木","address":"南町","lat":35.76604813191422,"lng":139.7014383149767,"choice":"dragonfruit"},{"name":"陽翔中村","address":"北区","lat":35.64776334228814,"lng":139.76360455069172,"choice":"dragonfruit"},{"name":"結愛渡辺","address":"港市","lat":35.69945177226743,"lng":139.77447484708554,"choice":"dragonfruit"},{"name":"心愛佐々木","address":"東市","lat":35.5054454916607,"lng":139.61365273155738,"choice":"crab"},{"name":"大和小林","address":"北町","lat":35.54641540127679,"lng":139.56317589892072,"choice":"rambutan"},{"name":"陽翔中村","address":"南区","lat":35.631372075958886,"lng":139.59747002752025,"choice":"crab"},{"name":"結愛中村","address":"港区","lat":35.70179808299798,"lng":139.88021808750145,"choice":"rambutan"},{"name":"樹清水","address":"湖市","lat":35.740974549959375,"lng":139.70544266659377,"choice":"crab"},{"name":"莉子佐々木","address":"北村","lat":35.647205563681126,"lng":139.65502383614944,"choice":"rambutan"},{"name":"美羽山本","address":"北区","lat":35.50813208300708,"lng":139.7869878158555,"choice":"durian"},{"name":"大翔佐々木","address":"新町","lat":35.70435035359206,"lng":139.628365668549,"choice":"crab"},{"name":"結愛田中","address":"港町","lat":35.68373577568593,"lng":139.7495833106064,"choice":"rambutan"},{"name":"樹田中","address":"湖村","lat":35.681175823250186,"lng":139.59444526520412,"choice":"rambutan"},{"name":"海翔山田","address":"北村","lat":35.765536809729895,"lng":139.93455778032597,"choice":"crab"},{"name":"結衣山本","address":"湖町","lat":35.53882585934506,"lng":139.6489615854989,"choice":"durian"},{"name":"翼松本","address":"港町","lat":35.647144679388184,"lng":139.59370735917133,"choice":"crab"},{"name":"陽菜林","address":"東村","lat":35.60585427980859,"lng":139.78778002221702,"choice":"jackfruit"},{"name":"杏清水","address":"北区","lat":35.61874537491188,"lng":139.5946498473148,"choice":"jackfruit"},{"name":"結衣斎藤","address":"港区","lat":35.749363074279685,"lng":139.72741515245394,"choice":"crab"},{"name":"心愛中村","address":"東区","lat":35.70682177081244,"lng":139.59765741801647,"choice":"jackfruit"},{"name":"蒼空伊藤","address":"南村","lat":35.713721562202345,"lng":139.77971034525612,"choice":"jackfruit"},{"name":"結衣吉田","address":"南村","lat":35.559929447131275,"lng":139.83421478881394,"choice":"jackfruit"},{"name":"蓮田中","address":"新町","lat":35.54891420234564,"lng":139.6326248959097,"choice":"rambutan"},{"name":"大和吉田","address":"北町","lat":35.623501755155814,"lng":139.83308203777614,"choice":"rambutan"},{"name":"愛菜山田","address":"西市","lat":35.65982013501272,"lng":139.69478573984796,"choice":"jackfruit"},{"name":"陽菜林","address":"西市","lat":35.704458501606474,"lng":139.80919127359707,"choice":"crab"},{"name":"蒼空鈴木","address":"港区","lat":35.70911105981367,"lng":139.83660816713171,"choice":"dragonfruit"},{"name":"颯太清水","address":"新区","lat":35.640714449159276,"lng":139.77061055037518,"choice":"rambutan"},{"name":"翼清水","address":"北市","lat":35.67545869309373,"lng":139.69957537410207,"choice":"jackfruit"},{"name":"蒼空吉田","address":"港町","lat":35.59275487608564,"lng":139.73062921389695,"choice":"crab"},{"name":"颯太斎藤","address":"港村","lat":35.56927297860211,"lng":139.7659085004012,"choice":"dragonfruit"},{"name":"愛菜加藤","address":"南市","lat":35.712755151003805,"lng":139.7751583779346,"choice":"durian"},{"name":"海翔松本","address":"西町","lat":35.50285794923886,"lng":139.92417024453403,"choice":"jackfruit"},{"name":"美咲中村","address":"湖市","lat":35.70805585227286,"lng":139.85535477015827,"choice":"dragonfruit"},{"name":"翼小林","address":"西区","lat":35.671610925943526,"lng":139.93460555893077,"choice":"jackfruit"},{"name":"海翔田中","address":"南村","lat":35.692832873205425,"lng":139.9274657061904,"choice":"durian"},{"name":"結愛伊藤","address":"新町","lat":35.579573057033976,"lng":139.5797824762418,"choice":"durian"},{"name":"陸斗田中","address":"港町","lat":35.52402362544659,"lng":139.87701005788338,"choice":"dragonfruit"},{"name":"颯太佐々木","address":"湖市","lat":35.628558476542274,"lng":139.8122736386191,"choice":"jackfruit"},{"name":"結愛佐藤","address":"西町","lat":35.55547128710215,"lng":139.92966680300015,"choice":"rambutan"},{"name":"陽菜渡辺","address":"北町","lat":35.62010893149799,"lng":139.90527171512642,"choice":"rambutan"},{"name":"蒼空伊藤","address":"港市","lat":35.573904034671806,"lng":139.85665558722616,"choice":"crab"},{"name":"莉子渡辺","address":"港村","lat":35.56218865258716,"lng":139.62441232134427,"choice":"durian"},{"name":"結衣井上","address":"新区","lat":35.55407917631842,"lng":139.5699235532305,"choice":"rambutan"},{"name":"心愛加藤","address":"北市","lat":35.64455484601223,"lng":139.8849065441758,"choice":"crab"},{"name":"陽菜吉田","address":"新区","lat":35.58376918105986,"lng":139.7189719646358,"choice":"durian"},{"name":"結愛山田","address":"港村","lat":35.71306999599122,"lng":139.71156065892058,"choice":"jackfruit"},{"name":"樹鈴木","address":"東町","lat":35.63878051711325,"lng":139.91761470400425,"choice":"dragonfruit"},{"name":"大和山田","address":"西区","lat":35.69624454269969,"lng":139.7420737455305,"choice":"rambutan"},{"name":"莉子山田","address":"港町","lat":35.58195057193544,"lng":139.62504181771803,"choice":"durian"},{"name":"颯太佐藤","address":"北村","lat":35.765077144020744,"lng":139.58779903548705,"choice":"rambutan"},{"name":"樹佐々木","address":"南町","lat":35.499873975550855,"lng":139.78507479286353,"choice":"crab"},{"name":"颯太鈴木","address":"港市","lat":35.59360860716706,"lng":139.7582209506567,"choice":"jackfruit"},{"name":"美咲渡辺","address":"湖市","lat":35.68411546602048,"lng":139.6028411998369,"choice":"crab"},{"name":"結衣松本","address":"北区","lat":35.67712135995355,"lng":139.62729741371507,"choice":"durian"},{"name":"颯太加藤","address":"南区","lat":35.67372743764987,"lng":139.92387261712557,"choice":"rambutan"},{"name":"莉子山口","address":"東区","lat":35.6697588357911,"lng":139.63217058694084,"choice":"crab"},{"name":"蓮松本","address":"湖区","lat":35.67338622818013,"lng":139.7359367220544,"choice":"durian"},{"name":"結衣山本","address":"港村","lat":35.57061192798977,"lng":139.60647128140408,"choice":"rambutan"},{"name":"陸斗伊藤","address":"北町","lat":35.61203557807653,"lng":139.79917607880878,"choice":"jackfruit"},{"name":"美羽伊藤","address":"北村","lat":35.75816597982544,"lng":139.57975011900893,"choice":"dragonfruit"},{"name":"結衣伊藤","address":"北町","lat":35.73341627620026,"lng":139.9363661846817,"choice":"rambutan"},{"name":"結菜木村","address":"新村","lat":35.717186371299,"lng":139.86036135396984,"choice":"crab"},{"name":"美羽吉田","address":"新町","lat":35.70117998917322,"lng":139.5760715846686,"choice":"rambutan"},{"name":"結衣吉田","address":"新区","lat":35.630388833760136,"lng":139.65140794843256,"choice":"rambutan"},{"name":"心愛佐藤","address":"東村","lat":35.588969582046836,"lng":139.63865955004317,"choice":"jackfruit"},{"name":"心愛小林","address":"東村","lat":35.590893653855936,"lng":139.72876754403293,"choice":"rambutan"},{"name":"陽翔清水","address":"湖村","lat":35.656141676073105,"lng":139.65151349068125,"choice":"dragonfruit"},{"name":"太一佐々木","address":"西区","lat":35.7082808732188,"lng":139.625454015453,"choice":"crab"},{"name":"大翔山口","address":"北村","lat":35.61530670655934,"lng":139.57400674965328,"choice":"jackfruit"},{"name":"美羽山田","address":"港村","lat":35.7410100338466,"lng":139.85007605987045,"choice":"crab"},{"name":"陽翔加藤","address":"港区","lat":35.743109969072584,"lng":139.59162070049143,"choice":"crab"},{"name":"陽翔小林","address":"港市","lat":35.61234239282208,"lng":139.69606718956496,"choice":"crab"},{"name":"陽翔佐藤","address":"南村","lat":35.545740596066665,"lng":139.57118878711296,"choice":"dragonfruit"},{"name":"大和小林","address":"西市","lat":35.53844120036967,"lng":139.87239161629154,"choice":"dragonfruit"},{"name":"杏木村","address":"港市","lat":35.73838001705562,"lng":139.60783654871997,"choice":"crab"},{"name":"大翔吉田","address":"北村","lat":35.52373106428321,"lng":139.8480432249363,"choice":"durian"},{"name":"結衣佐々木","address":"港区","lat":35.55890751535417,"lng":139.64045589635603,"choice":"crab"},{"name":"太一松本","address":"西区","lat":35.72809394407658,"lng":139.6242189055542,"choice":"crab"},{"name":"結愛木村","address":"新町","lat":35.70815442353832,"lng":139.57445470452126,"choice":"dragonfruit"},{"name":"陽翔吉田","address":"北村","lat":35.55744816206436,"lng":139.8620293546658,"choice":"dragonfruit"},{"name":"杏山口","address":"新町","lat":35.693015262814136,"lng":139.69741404451432,"choice":"jackfruit"},{"name":"樹小林","address":"東区","lat":35.63334081423523,"lng":139.8600323276566,"choice":"durian"},{"name":"心愛清水","address":"港市","lat":35.61078528925139,"lng":139.85158419084271,"choice":"jackfruit"},{"name":"蓮高橋","address":"西区","lat":35.76822451387544,"lng":139.6687546566853,"choice":"durian"},{"name":"美咲山本","address":"湖町","lat":35.70169325156708,"lng":139.80088430931403,"choice":"crab"},{"name":"結衣林","address":"北村","lat":35.545340977249616,"lng":139.60135761320373,"choice":"crab"},{"name":"陸斗山田","address":"北町","lat":35.568296658897886,"lng":139.93033422628378,"choice":"rambutan"},{"name":"愛菜鈴木","address":"湖村","lat":35.72745944142998,"lng":139.81878633111415,"choice":"dragonfruit"},{"name":"美羽佐々木","address":"湖市","lat":35.721180347851686,"lng":139.60749345372793,"choice":"jackfruit"},{"name":"蒼空吉田","address":"東市","lat":35.73656588615277,"lng":139.9124909461488,"choice":"crab"},{"name":"結菜山本","address":"北区","lat":35.7571749825441,"lng":139.89699872489038,"choice":"dragonfruit"},{"name":"海翔山本","address":"港市","lat":35.49701569900299,"lng":139.7282515605021,"choice":"dragonfruit"},{"name":"陽翔鈴木","address":"北村","lat":35.50531555223869,"lng":139.58796650046057,"choice":"durian"},{"name":"太一伊藤","address":"南区","lat":35.72568623229888,"lng":139.80141103078012,"choice":"durian"},{"name":"杏山田","address":"南村","lat":35.66305773777194,"lng":139.6670904140041,"choice":"crab"},{"name":"莉子井上","address":"西町","lat":35.550059086212514,"lng":139.63433939866502,"choice":"durian"},{"name":"陽翔清水","address":"港区","lat":35.708555583107,"lng":139.9017883683298,"choice":"jackfruit"},{"name":"海翔松本","address":"新市","lat":35.71013738174612,"lng":139.89020348245725,"choice":"dragonfruit"},{"name":"翼山口","address":"南村","lat":35.61814102087148,"lng":139.9338683928116,"choice":"dragonfruit"},{"name":"樹木村","address":"南区","lat":35.740199252742244,"lng":139.8258557352041,"choice":"durian"},{"name":"愛菜木村","address":"湖村","lat":35.641322163842666,"lng":139.71732486708873,"choice":"dragonfruit"},{"name":"樹中村","address":"北町","lat":35.74954378761367,"lng":139.59832731224057,"choice":"durian"},{"name":"陸斗伊藤","address":"東村","lat":35.71579098349674,"lng":139.6943979050367,"choice":"jackfruit"},{"name":"美羽鈴木","address":"新市","lat":35.76266159588212,"lng":139.56941438986425,"choice":"durian"},{"name":"太一斎藤","address":"西区","lat":35.76724683816503,"lng":139.56275251510576,"choice":"durian"},{"name":"杏斎藤","address":"新町","lat":35.58687985925995,"lng":139.8813546999243,"choice":"jackfruit"},{"name":"樹渡辺","address":"西区","lat":35.50252278063073,"lng":139.86135287420822,"choice":"dragonfruit"},{"name":"海翔松本","address":"西村","lat":35.68574210113918,"lng":139.8791488558611,"choice":"dragonfruit"},{"name":"心愛林","address":"南区","lat":35.63815432435061,"lng":139.76169329195793,"choice":"crab"},{"name":"太一伊藤","address":"新村","lat":35.755683720702194,"lng":139.8706297986934,"choice":"dragonfruit"},{"name":"翼山口","address":"湖区","lat":35.6980812112416,"lng":139.72602527152182,"choice":"durian"},{"name":"海翔佐藤","address":"港区","lat":35.68405003700074,"lng":139.69469693579904,"choice":"dragonfruit"},{"name":"海翔小林","address":"新区","lat":35.67128806239064,"lng":139.925161034946,"choice":"jackfruit"},{"name":"美羽井上","address":"東町","lat":35.73088844343917,"lng":139.86577316400098,"choice":"rambutan"},{"name":"樹清水","address":"東市","lat":35.699021855997565,"lng":139.5590094335247,"choice":"durian"},{"name":"大翔松本","address":"東村","lat":35.65081622636301,"lng":139.58687705903085,"choice":"durian"},{"name":"樹佐々木","address":"西村","lat":35.699033440296006,"lng":139.94027370343906,"choice":"dragonfruit"},{"name":"結菜山田","address":"南市","lat":35.52374605028651,"lng":139.6022086191471,"choice":"dragonfruit"},{"name":"大翔佐々木","address":"湖区","lat":35.603161674981706,"lng":139.82452643429366,"choice":"jackfruit"},{"name":"陽菜斎藤","address":"南町","lat":35.66569790916569,"lng":139.61721157992085,"choice":"dragonfruit"},{"name":"愛菜佐々木","address":"港区","lat":35.51564118249712,"lng":139.88558851400128,"choice":"crab"},{"name":"結菜中村","address":"西市","lat":35.59409980625969,"lng":139.86393345963648,"choice":"crab"},{"name":"海翔中村","address":"西町","lat":35.768654105170505,"lng":139.71675470226813,"choice":"jackfruit"},{"name":"陸斗山口","address":"湖区","lat":35.70404186201457,"lng":139.8572446275233,"choice":"rambutan"},{"name":"結愛松本","address":"南町","lat":35.665870094874506,"lng":139.9272184853082,"choice":"dragonfruit"},{"name":"愛菜松本","address":"湖市","lat":35.71915815161519,"lng":139.91292437733873,"choice":"crab"},{"name":"杏木村","address":"港町","lat":35.66678091277211,"lng":139.90258131377055,"choice":"durian"},{"name":"杏加藤","address":"港区","lat":35.70314022113269,"lng":139.69242827050434,"choice":"jackfruit"},{"name":"莉子小林","address":"西村","lat":35.682876305595265,"lng":139.74833891699038,"choice":"dragonfruit"},{"name":"樹中村","address":"西村","lat":35.656450571333714,"lng":139.7830830548919,"choice":"dragonfruit"},{"name":"颯太斎藤","address":"西村","lat":35.52646164111019,"lng":139.94379746229342,"choice":"crab"},{"name":"大和高橋","address":"新町","lat":35.762702433038505,"lng":139.61625398961812,"choice":"jackfruit"},{"name":"颯太斎藤","address":"港町","lat":35.558187764136214,"lng":139.86415351029996,"choice":"durian"},{"name":"蒼空林","address":"北町","lat":35.544062952822124,"lng":139.9460977702239,"choice":"crab"},{"name":"愛菜木村","address":"西市","lat":35.5062772538616,"lng":139.72614678379816,"choice":"jackfruit"},{"name":"蒼空渡辺","address":"北村","lat":35.5308121275271,"lng":139.58299617309876,"choice":"jackfruit"},{"name":"颯太井上","address":"南村","lat":35.55996555907789,"lng":139.86898962907634,"choice":"rambutan"},{"name":"美咲佐々木","address":"東町","lat":35.59485424129668,"lng":139.82739297882603,"choice":"rambutan"},{"name":"美羽鈴木","address":"東市","lat":35.673553118501076,"lng":139.77817281277868,"choice":"dragonfruit"},{"name":"結衣小林","address":"新市","lat":35.703661777086175,"lng":139.8504676269245,"choice":"durian"},{"name":"愛菜林","address":"北区","lat":35.51348705473965,"lng":139.87299465125307,"choice":"jackfruit"},{"name":"颯太井上","address":"北区","lat":35.71364302937664,"lng":139.64905253276865,"choice":"jackfruit"},{"name":"太一鈴木","address":"西町","lat":35.657587443591574,"lng":139.89928397659872,"choice":"dragonfruit"},{"name":"陸斗高橋","address":"北市","lat":35.68394541768078,"lng":139.59566263252813,"choice":"jackfruit"},{"name":"陽翔山田","address":"新町","lat":35.7668415942797,"lng":139.8842342877279,"choice":"jackfruit"},{"name":"颯太鈴木","address":"西村","lat":35.65519027583354,"lng":139.7767991228576,"choice":"dragonfruit"},{"name":"結菜林","address":"北村","lat":35.6153195244116,"lng":139.83894394924,"choice":"rambutan"},{"name":"大和伊藤","address":"東町","lat":35.59185684065927,"lng":139.58209778741457,"choice":"dragonfruit"}]